{"departamentos":[{"centroide":{"lat":-28.3343382720204,"lon":-65.731187897962},"id":"10063","nombre":"Fray Mamerto Esquiú","provincia":{"id":"10","nombre":"Catamarca"}},{"centroide":{"lat":-28.6000684837485,"lon":-65.7079324164837},"id":"10112","nombre":"Valle Viejo","provincia":{"id":"10","nombre":"Catamarca"}},{"centroide":{"lat":-25.9467556410811,"lon":-67.6778798484787},"id":"10028","nombre":"Antofagasta de la Sierra","provincia":{"id":"10","nombre":"Catamarca"}},{"centroide":{"lat":-28.9094976289814,"lon":-65.9017191021383},"id":"10042","nombre":"Capayán","provincia":{"id":"10","nombre":"Catamarca"}},{"centroide":{"lat":-27.5418355834148,"lon":-67.9307422147195},"id":"10105","nombre":"Tinogasta","provincia":{"id":"10","nombre":"Catamarca"}},{"centroide":{"lat":-26.7734648563207,"lon":-66.2612705245824},"id":"10091","nombre":"Santa María","provincia":{"id":"10","nombre":"Catamarca"}},{"centroide":{"lat":-28.082107971849,"lon":-65.3350824661739},"id":"10098","nombre":"Santa Rosa","provincia":{"id":"10","nombre":"Catamarca"}},{"centroide":{"lat":-29.3955036215545,"lon":-65.1920338746874},"id":"10070","nombre":"La Paz","provincia":{"id":"10","nombre":"Catamarca"}},{"centroide":{"lat":-28.4117889646495,"lon":-65.8367262921682},"id":"10049","nombre":"Capital","provincia":{"id":"10","nombre":"Catamarca"}},{"centroide":{"lat":-28.9274130674418,"lon":-65.504299177941},"id":"10014","nombre":"Ancasti","provincia":{"id":"10","nombre":"Catamarca"}},{"centroide":{"lat":-28.2337589059236,"lon":-66.3888045363986},"id":"10084","nombre":"Pomán","provincia":{"id":"10","nombre":"Catamarca"}},{"centroide":{"lat":-27.5728459104474,"lon":-66.3731024938335},"id":"10021","nombre":"Andalgalá","provincia":{"id":"10","nombre":"Catamarca"}},{"centroide":{"lat":-28.0199741656262,"lon":-65.9227878835948},"id":"10007","nombre":"Ambato","provincia":{"id":"10","nombre":"Catamarca"}},{"centroide":{"lat":-28.1103167424607,"lon":-65.6743180153264},"id":"10077","nombre":"Paclín","provincia":{"id":"10","nombre":"Catamarca"}},{"centroide":{"lat":-28.4317063831316,"lon":-65.3604289203864},"id":"10056","nombre":"El Alto","provincia":{"id":"10","nombre":"Catamarca"}},{"centroide":{"lat":-27.1019560038189,"lon":-66.9224805098511},"id":"10035","nombre":"Belén","provincia":{"id":"10","nombre":"Catamarca"}}]}
