{"cantidad":26,"inicio":0,"localidades":[{"categoria":"Localidad simple","centroide":{"lat":-49.985576992417,"lon":-68.9092992971819},"departamento":{"id":"78007","nombre":"Corpen Aike"},"id":"78007010","localidad_censal":{"id":"78007010","nombre":"Comandante Luis Piedrabuena"},"municipio":{"id":null,"nombre":null},"nombre":"Comandante Luis Piedrabuena","provincia":{"id":"78","nombre":"Santa Cruz"}},{"categoria":"Localidad simple","centroide":{"lat":-50.0186587486252,"lon":-68.5213642316797},"departamento":{"id":"78007","nombre":"Corpen Aike"},"id":"78007020","localidad_censal":{"id":"78007020","nombre":"Puerto Santa Cruz"},"municipio":{"id":null,"nombre":null},"nombre":"Puerto Santa Cruz","provincia":{"id":"78","nombre":"Santa Cruz"}},{"categoria":"Localidad simple","centroide":{"lat":-47.1840284109773,"lon":-67.1447240080037},"departamento":{"id":"78014","nombre":"Deseado"},"id":"78014040","localidad_censal":{"id":"78014040","nombre":"Jaramillo"},"municipio":{"id":null,"nombre":null},"nombre":"Jaramillo","provincia":{"id":"78","nombre":"Santa Cruz"}},{"categoria":"Localidad simple","centroide":{"lat":-46.5615341694967,"lon":-67.6106327547081},"departamento":{"id":"78014","nombre":"Deseado"},"id":"78014020","localidad_censal":{"id":"78014020","nombre":"Cañadón Seco"},"municipio":{"id":null,"nombre":null},"nombre":"Cañadón Seco","provincia":{"id":"78","nombre":"Santa Cruz"}},{"categoria":"Localidad simple","centroide":{"lat":-46.5413135289238,"lon":-68.9322724914313},"departamento":{"id":"78014","nombre":"Deseado"},"id":"78014060","localidad_censal":{"id":"78014060","nombre":"Las Heras"},"municipio":{"id":null,"nombre":null},"nombre":"Las Heras","provincia":{"id":"78","nombre":"Santa Cruz"}},{"categoria":"Localidad simple","centroide":{"lat":-47.7517194088909,"lon":-65.9009487268108},"departamento":{"id":"78014","nombre":"Deseado"},"id":"78014080","localidad_censal":{"id":"78014080","nombre":"Puerto Deseado"},"municipio":{"id":null,"nombre":null},"nombre":"Puerto Deseado","provincia":{"id":"78","nombre":"Santa Cruz"}},{"categoria":"Localidad simple","centroide":{"lat":-46.7994201755505,"lon":-67.9578516802203},"departamento":{"id":"78014","nombre":"Deseado"},"id":"78014070","localidad_censal":{"id":"78014070","nombre":"Pico Truncado"},"municipio":{"id":null,"nombre":null},"nombre":"Pico Truncado","provincia":{"id":"78","nombre":"Santa Cruz"}},{"categoria":"Localidad simple","centroide":{"lat":-47.6490308254007,"lon":-66.0400432765073},"departamento":{"id":"78014","nombre":"Deseado"},"id":"78014090","localidad_censal":{"id":"78014090","nombre":"Tellier"},"municipio":{"id":null,"nombre":null},"nombre":"Tellier","provincia":{"id":"78","nombre":"Santa Cruz"}},{"categoria":"Localidad simple","centroide":{"lat":-46.7168153931794,"lon":-68.2235809078605},"departamento":{"id":"78014","nombre":"Deseado"},"id":"78014050","localidad_censal":{"id":"78014050","nombre":"Nuestra Señora de los Dolores de Koluel Kayke"},"municipio":{"id":null,"nombre":null},"nombre":"Koluel Kaike","provincia":{"id":"78","nombre":"Santa Cruz"}},{"categoria":"Localidad simple","centroide":{"lat":-46.4478465229957,"lon":-67.5227409022738},"departamento":{"id":"78014","nombre":"Deseado"},"id":"78014010","localidad_censal":{"id":"78014010","nombre":"Caleta Olivia"},"municipio":{"id":null,"nombre":null},"nombre":"Caleta Olivia","provincia":{"id":"78","nombre":"Santa Cruz"}},{"categoria":"Localidad simple","centroide":{"lat":-47.0263477886883,"lon":-67.2473968411481},"departamento":{"id":"78014","nombre":"Deseado"},"id":"78014030","localidad_censal":{"id":"78014030","nombre":"Fitz Roy"},"municipio":{"id":null,"nombre":null},"nombre":"Fitz Roy","provincia":{"id":"78","nombre":"Santa Cruz"}},{"categoria":"Localidad simple","centroide":{"lat":-51.68091861252,"lon":-72.0884962680537},"departamento":{"id":"78021","nombre":"Güer Aike"},"id":"78021010","localidad_censal":{"id":"78021010","nombre":"El Turbio"},"municipio":{"id":null,"nombre":null},"nombre":"El Turbio","provincia":{"id":"78","nombre":"Santa Cruz"}},{"categoria":"Localidad simple","centroide":{"lat":-51.5364226395201,"lon":-72.3378549052832},"departamento":{"id":"78021","nombre":"Güer Aike"},"id":"78021070","localidad_censal":{"id":"78021070","nombre":"Yacimientos Río Turbio"},"municipio":{"id":null,"nombre":null},"nombre":"Yacimientos Río Turbio","provincia":{"id":"78","nombre":"Santa Cruz"}},{"categoria":"Localidad simple","centroide":{"lat":-51.579613896166,"lon":-72.2116403934705},"departamento":{"id":"78021","nombre":"Güer Aike"},"id":"78021060","localidad_censal":{"id":"78021060","nombre":"28 de Noviembre"},"municipio":{"id":null,"nombre":null},"nombre":"28 de Noviembre","provincia":{"id":"78","nombre":"Santa Cruz"}},{"categoria":"Localidad simple","centroide":{"lat":-51.5472871481372,"lon":-72.2390440680909},"departamento":{"id":"78021","nombre":"Güer Aike"},"id":"78021020","localidad_censal":{"id":"78021020","nombre":"Julia Dufour"},"municipio":{"id":null,"nombre":null},"nombre":"Julia Dufour","provincia":{"id":"78","nombre":"Santa Cruz"}},{"categoria":"Localidad simple","centroide":{"lat":-51.6653659201725,"lon":-72.1454724827851},"departamento":{"id":"78021","nombre":"Güer Aike"},"id":"78021050","localidad_censal":{"id":"78021050","nombre":"Rospentek"},"municipio":{"id":null,"nombre":null},"nombre":"Rospentek","provincia":{"id":"78","nombre":"Santa Cruz"}},{"categoria":"Localidad simple","centroide":{"lat":-51.6234632663739,"lon":-69.2158645331237},"departamento":{"id":"78021","nombre":"Güer Aike"},"id":"78021040","localidad_censal":{"id":"78021040","nombre":"Río Gallegos"},"municipio":{"id":null,"nombre":null},"nombre":"Río Gallegos","provincia":{"id":"78","nombre":"Santa Cruz"}},{"categoria":"Localidad simple","centroide":{"lat":-49.3328246557123,"lon":-72.8859114198951},"departamento":{"id":"78028","nombre":"Lago Argentino"},"id":"78028020","localidad_censal":{"id":"78028020","nombre":"El Chaltén"},"municipio":{"id":null,"nombre":null},"nombre":"El Chaltén","provincia":{"id":"78","nombre":"Santa Cruz"}},{"categoria":"Localidad simple","centroide":{"lat":-50.3380295398274,"lon":-72.2606652422011},"departamento":{"id":"78028","nombre":"Lago Argentino"},"id":"78028010","localidad_censal":{"id":"78028010","nombre":"El Calafate"},"municipio":{"id":null,"nombre":null},"nombre":"El Calafate","provincia":{"id":"78","nombre":"Santa Cruz"}},{"categoria":"Localidad simple","centroide":{"lat":-49.5979102036138,"lon":-71.4467467899851},"departamento":{"id":"78028","nombre":"Lago Argentino"},"id":"78028030","localidad_censal":{"id":"78028030","nombre":"Tres Lagos"},"municipio":{"id":null,"nombre":null},"nombre":"Tres Lagos","provincia":{"id":"78","nombre":"Santa Cruz"}},{"categoria":"Localidad simple","centroide":{"lat":-46.5510756582751,"lon":-71.6312708108782},"departamento":{"id":"78035","nombre":"Lago Buenos Aires"},"id":"78035010","localidad_censal":{"id":"78035010","nombre":"Los Antiguos"},"municipio":{"id":null,"nombre":null},"nombre":"Los Antiguos","provincia":{"id":"78","nombre":"Santa Cruz"}},{"categoria":"Localidad simple","centroide":{"lat":-46.5938169680365,"lon":-70.9299116754894},"departamento":{"id":"78035","nombre":"Lago Buenos Aires"},"id":"78035020","localidad_censal":{"id":"78035020","nombre":"Perito Moreno"},"municipio":{"id":null,"nombre":null},"nombre":"Perito Moreno","provincia":{"id":"78","nombre":"Santa Cruz"}},{"categoria":"Localidad simple","centroide":{"lat":-49.314086297116,"lon":-67.719744220642},"departamento":{"id":"78042","nombre":"Magallanes"},"id":"78042010","localidad_censal":{"id":"78042010","nombre":"Puerto San Julián"},"municipio":{"id":null,"nombre":null},"nombre":"Puerto San Julián","provincia":{"id":"78","nombre":"Santa Cruz"}},{"categoria":"Localidad simple","centroide":{"lat":-47.4431725014508,"lon":-70.9268826726691},"departamento":{"id":"78049","nombre":"Río Chico"},"id":"78049010","localidad_censal":{"id":"78049010","nombre":"Bajo Caracoles"},"municipio":{"id":null,"nombre":null},"nombre":"Bajo Caracoles","provincia":{"id":"78","nombre":"Santa Cruz"}},{"categoria":"Localidad simple","centroide":{"lat":-48.7508973372058,"lon":-70.2485196596237},"departamento":{"id":"78049","nombre":"Río Chico"},"id":"78049020","localidad_censal":{"id":"78049020","nombre":"Gobernador Gregores"},"municipio":{"id":null,"nombre":null},"nombre":"Gobernador Gregores","provincia":{"id":"78","nombre":"Santa Cruz"}},{"categoria":"Localidad simple","centroide":{"lat":-47.5656625192158,"lon":-71.7428482472665},"departamento":{"id":"78049","nombre":"Río Chico"},"id":"78049030","localidad_censal":{"id":"78049030","nombre":"Lago Posadas"},"municipio":{"id":null,"nombre":null},"nombre":"Hipólito Yrigoyen","provincia":{"id":"78","nombre":"Santa Cruz"}}],"parametros":{"max":999,"provincia":"cruz"},"total":26}
