{"cantidad":140,"inicio":0,"localidades":[{"categoria":"Entidad","centroide":{"lat":-27.0221009167187,"lon":-54.6856072222935},"departamento":{"id":"54014","nombre":"Cainguás"},"id":"5401403001","localidad_censal":{"id":"54014030","nombre":"Dos de Mayo"},"municipio":{"id":"540049","nombre":"Dos de Mayo"},"nombre":"Dos de Mayo Núcleo I","provincia":{"id":"54","nombre":"Misiones"}},{"categoria":"Entidad","centroide":{"lat":-27.0318614590439,"lon":-54.6649126897402},"departamento":{"id":"54014","nombre":"Cainguás"},"id":"5401403002","localidad_censal":{"id":"54014030","nombre":"Dos de Mayo"},"municipio":{"id":"540049","nombre":"Dos de Mayo"},"nombre":"Dos de Mayo Núcleo II","provincia":{"id":"54","nombre":"Misiones"}},{"categoria":"Localidad simple","centroide":{"lat":-28.0607079301754,"lon":-55.6770709044893},"departamento":{"id":"54007","nombre":"Apóstoles"},"id":"54007020","localidad_censal":{"id":"54007020","nombre":"Azara"},"municipio":{"id":"540014","nombre":"Azara"},"nombre":"Azara","provincia":{"id":"54","nombre":"Misiones"}},{"categoria":"Localidad simple","centroide":{"lat":-27.8811249994632,"lon":-55.7872757699423},"departamento":{"id":"54007","nombre":"Apóstoles"},"id":"54007025","localidad_censal":{"id":"54007025","nombre":"Barrio Rural"},"municipio":{"id":"540007","nombre":"Apóstoles"},"nombre":"Barrio Rural","provincia":{"id":"54","nombre":"Misiones"}},{"categoria":"Componente de localidad compuesta","centroide":{"lat":-27.911529115791,"lon":-55.8092186405509},"departamento":{"id":"54007","nombre":"Apóstoles"},"id":"54007030","localidad_censal":{"id":"54007030","nombre":"Estación Apóstoles"},"municipio":{"id":"540007","nombre":"Apóstoles"},"nombre":"Estación Apóstoles","provincia":{"id":"54","nombre":"Misiones"}},{"categoria":"Localidad simple","centroide":{"lat":-27.749423151438,"lon":-55.7947789586155},"departamento":{"id":"54007","nombre":"Apóstoles"},"id":"54007040","localidad_censal":{"id":"54007040","nombre":"Pindapoy"},"municipio":{"id":"540021","nombre":"San José"},"nombre":"Pindapoy","provincia":{"id":"54","nombre":"Misiones"}},{"categoria":"Localidad simple","centroide":{"lat":-28.1136188920138,"lon":-55.6295324099074},"departamento":{"id":"54007","nombre":"Apóstoles"},"id":"54007050","localidad_censal":{"id":"54007050","nombre":"Rincón de Azara"},"municipio":{"id":"540014","nombre":"Azara"},"nombre":"Rincón de Azara","provincia":{"id":"54","nombre":"Misiones"}},{"categoria":"Localidad simple","centroide":{"lat":-27.7699944020142,"lon":-55.7803037098363},"departamento":{"id":"54007","nombre":"Apóstoles"},"id":"54007060","localidad_censal":{"id":"54007060","nombre":"San José"},"municipio":{"id":"540021","nombre":"San José"},"nombre":"San José","provincia":{"id":"54","nombre":"Misiones"}},{"categoria":"Localidad simple","centroide":{"lat":-28.0042531114421,"lon":-55.6094041493467},"departamento":{"id":"54007","nombre":"Apóstoles"},"id":"54007070","localidad_censal":{"id":"54007070","nombre":"Tres Capones"},"municipio":{"id":"540028","nombre":"Tres Capones"},"nombre":"Tres Capones","provincia":{"id":"54","nombre":"Misiones"}},{"categoria":"Localidad simple","centroide":{"lat":-27.9141359337054,"lon":-55.7548578406666},"departamento":{"id":"54007","nombre":"Apóstoles"},"id":"54007010","localidad_censal":{"id":"54007010","nombre":"Apóstoles"},"municipio":{"id":"540007","nombre":"Apóstoles"},"nombre":"Apóstoles","provincia":{"id":"54","nombre":"Misiones"}},{"categoria":"Localidad simple","centroide":{"lat":-27.095675650663,"lon":-54.8934176144238},"departamento":{"id":"54014","nombre":"Cainguás"},"id":"54014010","localidad_censal":{"id":"54014010","nombre":"Aristóbulo del Valle"},"municipio":{"id":"540035","nombre":"Aristóbulo del Valle"},"nombre":"Aristóbulo del Valle","provincia":{"id":"54","nombre":"Misiones"}},{"categoria":"Localidad simple","centroide":{"lat":-27.2079594757129,"lon":-54.9797023999934},"departamento":{"id":"54014","nombre":"Cainguás"},"id":"54014020","localidad_censal":{"id":"54014020","nombre":"Campo Grande"},"municipio":{"id":"540042","nombre":"Campo Grande"},"nombre":"Campo Grande","provincia":{"id":"54","nombre":"Misiones"}},{"categoria":"Localidad simple","centroide":{"lat":-27.013338352247,"lon":-54.6081561343144},"departamento":{"id":"54014","nombre":"Cainguás"},"id":"54014050","localidad_censal":{"id":"54014050","nombre":"Bº Bernardino Rivadavia"},"municipio":{"id":"540049","nombre":"Dos de Mayo"},"nombre":"Dos de Mayo Nucleo III (Bº Bernardino Rivadavia)","provincia":{"id":"54","nombre":"Misiones"}},{"categoria":"Localidad simple","centroide":{"lat":-27.1679908455962,"lon":-55.0290627050208},"departamento":{"id":"54014","nombre":"Cainguás"},"id":"54014060","localidad_censal":{"id":"54014060","nombre":"1º de Mayo"},"municipio":{"id":"540042","nombre":"Campo Grande"},"nombre":"1º de Mayo","provincia":{"id":"54","nombre":"Misiones"}},{"categoria":"Localidad simple","centroide":{"lat":-27.1525774961752,"lon":-54.5607361918512},"departamento":{"id":"54014","nombre":"Cainguás"},"id":"54014070","localidad_censal":{"id":"54014070","nombre":"Pueblo Illia"},"municipio":{"id":"540049","nombre":"Dos de Mayo"},"nombre":"Pueblo Illia","provincia":{"id":"54","nombre":"Misiones"}},{"categoria":"Localidad simple","centroide":{"lat":-27.4612179179034,"lon":-55.7439632349916},"departamento":{"id":"54021","nombre":"Candelaria"},"id":"54021020","localidad_censal":{"id":"54021020","nombre":"Candelaria"},"municipio":{"id":"540063","nombre":"Candelaria"},"nombre":"Candelaria","provincia":{"id":"54","nombre":"Misiones"}},{"categoria":"Localidad simple","centroide":{"lat":-27.0873225759686,"lon":-54.8333673267174},"departamento":{"id":"54014","nombre":"Cainguás"},"id":"54014080","localidad_censal":{"id":"54014080","nombre":"Salto Encantado"},"municipio":{"id":"540035","nombre":"Aristóbulo del Valle"},"nombre":"Salto Encantado","provincia":{"id":"54","nombre":"Misiones"}},{"categoria":"Localidad simple","centroide":{"lat":-27.3157401414387,"lon":-54.9027258895434},"departamento":{"id":"54014","nombre":"Cainguás"},"id":"54014055","localidad_censal":{"id":"54014055","nombre":"Kilómetro 17"},"municipio":{"id":"540042","nombre":"Campo Grande"},"nombre":"Kilómetro 17","provincia":{"id":"54","nombre":"Misiones"}},{"categoria":"Localidad simple","centroide":{"lat":-27.0199367725495,"lon":-54.6845309683247},"departamento":{"id":"54014","nombre":"Cainguás"},"id":"54014030","localidad_censal":{"id":"54014030","nombre":"Dos de Mayo"},"municipio":{"id":"540049","nombre":"Dos de Mayo"},"nombre":"Dos de Mayo","provincia":{"id":"54","nombre":"Misiones"}},{"categoria":"Localidad simple","centroide":{"lat":-27.4854037770063,"lon":-55.4800946081688},"departamento":{"id":"54021","nombre":"Candelaria"},"id":"54021010","localidad_censal":{"id":"54021010","nombre":"Bonpland"},"municipio":{"id":"540056","nombre":"Bonpland"},"nombre":"Bonpland","provincia":{"id":"54","nombre":"Misiones"}},{"categoria":"Localidad simple","centroide":{"lat":-27.5119171907114,"lon":-55.6096055001528},"departamento":{"id":"54021","nombre":"Candelaria"},"id":"54021030","localidad_censal":{"id":"54021030","nombre":"Cerro Corá"},"municipio":{"id":"540070","nombre":"Cerro Corá"},"nombre":"Cerro Corá","provincia":{"id":"54","nombre":"Misiones"}},{"categoria":"Localidad simple","centroide":{"lat":-27.4231319468937,"lon":-55.3772951438647},"departamento":{"id":"54021","nombre":"Candelaria"},"id":"54021050","localidad_censal":{"id":"54021050","nombre":"Mártires"},"municipio":{"id":"540084","nombre":"Mártires"},"nombre":"Mártires","provincia":{"id":"54","nombre":"Misiones"}},{"categoria":"Localidad simple","centroide":{"lat":-27.5617193816031,"lon":-55.7045653968785},"departamento":{"id":"54021","nombre":"Candelaria"},"id":"54021060","localidad_censal":{"id":"54021060","nombre":"Profundidad"},"municipio":{"id":"540091","nombre":"Profundidad"},"nombre":"Profundidad","provincia":{"id":"54","nombre":"Misiones"}},{"categoria":"Localidad simple","centroide":{"lat":-27.3356474494144,"lon":-55.5831271516349},"departamento":{"id":"54021","nombre":"Candelaria"},"id":"54021070","localidad_censal":{"id":"54021070","nombre":"Puerto Santa Ana"},"municipio":{"id":"540098","nombre":"Santa Ana"},"nombre":"Puerto Santa Ana","provincia":{"id":"54","nombre":"Misiones"}},{"categoria":"Localidad simple","centroide":{"lat":-27.3329451758117,"lon":-55.5222494577568},"departamento":{"id":"54021","nombre":"Candelaria"},"id":"54021040","localidad_censal":{"id":"54021040","nombre":"Loreto"},"municipio":{"id":"540077","nombre":"Loreto"},"nombre":"Loreto","provincia":{"id":"54","nombre":"Misiones"}},{"categoria":"Localidad simple","centroide":{"lat":-27.3692137837182,"lon":-55.5817097004515},"departamento":{"id":"54021","nombre":"Candelaria"},"id":"54021080","localidad_censal":{"id":"54021080","nombre":"Santa Ana"},"municipio":{"id":"540098","nombre":"Santa Ana"},"nombre":"Santa Ana","provincia":{"id":"54","nombre":"Misiones"}},{"categoria":"Localidad simple","centroide":{"lat":-27.4665218225907,"lon":-55.7989929706314},"departamento":{"id":"54021","nombre":"Candelaria"},"id":"54021005","localidad_censal":{"id":"54021005","nombre":"Barrio del Lago"},"municipio":{"id":"540063","nombre":"Candelaria"},"nombre":"Barrio del Lago","provincia":{"id":"54","nombre":"Misiones"}},{"categoria":"Componente de localidad compuesta","centroide":{"lat":-27.4837771073615,"lon":-55.8297016552887},"departamento":{"id":"54028","nombre":"Capital"},"id":"54028010","localidad_censal":{"id":"54028010","nombre":"Garupá"},"municipio":{"id":"540112","nombre":"Garupá"},"nombre":"Garupá","provincia":{"id":"54","nombre":"Misiones"}},{"categoria":"Localidad simple","centroide":{"lat":-27.3564760995956,"lon":-56.0172226758984},"departamento":{"id":"54028","nombre":"Capital"},"id":"54028020","localidad_censal":{"id":"54028020","nombre":"Nemesio Parma"},"municipio":{"id":"540119","nombre":"Posadas"},"nombre":"Nemesio Parma","provincia":{"id":"54","nombre":"Misiones"}},{"categoria":"Componente de localidad compuesta","centroide":{"lat":-27.4524336750218,"lon":-55.8527114869609},"departamento":{"id":"54028","nombre":"Capital"},"id":"54028040","localidad_censal":{"id":"54028040","nombre":"Posadas (Expansión)"},"municipio":{"id":"540112","nombre":"Garupá"},"nombre":"Posadas (Extensión)","provincia":{"id":"54","nombre":"Misiones"}},{"categoria":"Componente de localidad compuesta","centroide":{"lat":-27.3664259799962,"lon":-55.8939802751923},"departamento":{"id":"54028","nombre":"Capital"},"id":"54028030","localidad_censal":{"id":"54028030","nombre":"Posadas"},"municipio":{"id":"540119","nombre":"Posadas"},"nombre":"Posadas","provincia":{"id":"54","nombre":"Misiones"}},{"categoria":"Localidad simple","centroide":{"lat":-28.1166982283608,"lon":-55.5815159939001},"departamento":{"id":"54035","nombre":"Concepción"},"id":"54035010","localidad_censal":{"id":"54035010","nombre":"Barra Concepción"},"municipio":{"id":"540126","nombre":"Concepción de la Sierra"},"nombre":"Barra Concepción","provincia":{"id":"54","nombre":"Misiones"}},{"categoria":"Localidad simple","centroide":{"lat":-27.9805783904721,"lon":-55.5215882217731},"departamento":{"id":"54035","nombre":"Concepción"},"id":"54035020","localidad_censal":{"id":"54035020","nombre":"Concepción de la Sierra"},"municipio":{"id":"540126","nombre":"Concepción de la Sierra"},"nombre":"Concepción de la Sierra","provincia":{"id":"54","nombre":"Misiones"}},{"categoria":"Localidad simple","centroide":{"lat":-27.8925337769167,"lon":-55.3555548841936},"departamento":{"id":"54035","nombre":"Concepción"},"id":"54035030","localidad_censal":{"id":"54035030","nombre":"La Corita"},"municipio":{"id":"540133","nombre":"Santa María"},"nombre":"La Corita","provincia":{"id":"54","nombre":"Misiones"}},{"categoria":"Localidad simple","centroide":{"lat":-27.9345141293085,"lon":-55.407334404252},"departamento":{"id":"54035","nombre":"Concepción"},"id":"54035040","localidad_censal":{"id":"54035040","nombre":"Santa María"},"municipio":{"id":"540133","nombre":"Santa María"},"nombre":"Santa María","provincia":{"id":"54","nombre":"Misiones"}},{"categoria":"Localidad simple","centroide":{"lat":-26.3336870242994,"lon":-54.6246096255617},"departamento":{"id":"54042","nombre":"Eldorado"},"id":"54042010","localidad_censal":{"id":"54042010","nombre":"Colonia Victoria"},"municipio":{"id":"540147","nombre":"Colonia Victoria"},"nombre":"Colonia Victoria","provincia":{"id":"54","nombre":"Misiones"}},{"categoria":"Localidad simple","centroide":{"lat":-26.2372829535012,"lon":-54.6028964192686},"departamento":{"id":"54042","nombre":"Eldorado"},"id":"54042030","localidad_censal":{"id":"54042030","nombre":"María Magdalena"},"municipio":{"id":"540140","nombre":"Colonia Delicia"},"nombre":"María Magdalena","provincia":{"id":"54","nombre":"Misiones"}},{"categoria":"Localidad simple","centroide":{"lat":-26.1817287082965,"lon":-54.5912164492971},"departamento":{"id":"54042","nombre":"Eldorado"},"id":"54042035","localidad_censal":{"id":"54042035","nombre":"Nueva Delicia"},"municipio":{"id":"540140","nombre":"Colonia Delicia"},"nombre":"Nueva Delicia","provincia":{"id":"54","nombre":"Misiones"}},{"categoria":"Localidad simple","centroide":{"lat":-26.4302805288504,"lon":-54.4664724264768},"departamento":{"id":"54042","nombre":"Eldorado"},"id":"54042040","localidad_censal":{"id":"54042040","nombre":"9 de Julio Kilómetro 28"},"municipio":{"id":"540161","nombre":"9 de Julio"},"nombre":"9 de Julio Kilómetro 28","provincia":{"id":"54","nombre":"Misiones"}},{"categoria":"Localidad simple","centroide":{"lat":-26.4147164146002,"lon":-54.495858793798},"departamento":{"id":"54042","nombre":"Eldorado"},"id":"54042050","localidad_censal":{"id":"54042050","nombre":"9 de Julio Kilómetro 20"},"municipio":{"id":"540161","nombre":"9 de Julio"},"nombre":"9 de Julio Kilómetro 20","provincia":{"id":"54","nombre":"Misiones"}},{"categoria":"Localidad simple","centroide":{"lat":-26.2434147442071,"lon":-54.5912229687966},"departamento":{"id":"54042","nombre":"Eldorado"},"id":"54042055","localidad_censal":{"id":"54042055","nombre":"Pueblo Nuevo"},"municipio":{"id":"540140","nombre":"Colonia Delicia"},"nombre":"Pueblo Nuevo","provincia":{"id":"54","nombre":"Misiones"}},{"categoria":"Localidad simple","centroide":{"lat":-26.2297441722291,"lon":-54.623547911127},"departamento":{"id":"54042","nombre":"Eldorado"},"id":"54042060","localidad_censal":{"id":"54042060","nombre":"Puerto Mado"},"municipio":{"id":"540140","nombre":"Colonia Delicia"},"nombre":"Puerto Mado","provincia":{"id":"54","nombre":"Misiones"}},{"categoria":"Localidad simple","centroide":{"lat":-26.4273389693379,"lon":-54.6829642579317},"departamento":{"id":"54042","nombre":"Eldorado"},"id":"54042070","localidad_censal":{"id":"54042070","nombre":"Puerto Pinares"},"municipio":{"id":"540154","nombre":"Eldorado"},"nombre":"Puerto Pinares","provincia":{"id":"54","nombre":"Misiones"}},{"categoria":"Localidad simple","centroide":{"lat":-26.3844224331976,"lon":-54.4634621731852},"departamento":{"id":"54042","nombre":"Eldorado"},"id":"54042090","localidad_censal":{"id":"54042090","nombre":"Valle Hermoso"},"municipio":{"id":"540161","nombre":"9 de Julio"},"nombre":"Valle Hermoso","provincia":{"id":"54","nombre":"Misiones"}},{"categoria":"Localidad simple","centroide":{"lat":-26.4423688186645,"lon":-54.6404687715455},"departamento":{"id":"54042","nombre":"Eldorado"},"id":"54042100","localidad_censal":{"id":"54042100","nombre":"Villa Roulet"},"municipio":{"id":"540154","nombre":"Eldorado"},"nombre":"Villa Roulet","provincia":{"id":"54","nombre":"Misiones"}},{"categoria":"Localidad simple","centroide":{"lat":-26.4011899197027,"lon":-54.415647354223},"departamento":{"id":"54042","nombre":"Eldorado"},"id":"54042080","localidad_censal":{"id":"54042080","nombre":"Santiago de Liniers"},"municipio":{"id":"540168","nombre":"Santiago de Liniers"},"nombre":"Santiago de Liniers","provincia":{"id":"54","nombre":"Misiones"}},{"categoria":"Localidad simple","centroide":{"lat":-26.4088769640649,"lon":-54.6070530398259},"departamento":{"id":"54042","nombre":"Eldorado"},"id":"54042020","localidad_censal":{"id":"54042020","nombre":"Eldorado"},"municipio":{"id":"540154","nombre":"Eldorado"},"nombre":"Eldorado","provincia":{"id":"54","nombre":"Misiones"}},{"categoria":"Localidad simple","centroide":{"lat":-25.6671648439804,"lon":-54.0498617471609},"departamento":{"id":"54049","nombre":"General Manuel Belgrano"},"id":"54049010","localidad_censal":{"id":"54049010","nombre":"Comandante Andresito"},"municipio":{"id":"540182","nombre":"Comandante Andresito"},"nombre":"Comandante Andresito","provincia":{"id":"54","nombre":"Misiones"}},{"categoria":"Localidad simple","centroide":{"lat":-25.6821342595151,"lon":-54.1413600614806},"departamento":{"id":"54049","nombre":"General Manuel Belgrano"},"id":"54049025","localidad_censal":{"id":"54049025","nombre":"Caburei"},"municipio":{"id":"540182","nombre":"Comandante Andresito"},"nombre":"Caburei","provincia":{"id":"54","nombre":"Misiones"}},{"categoria":"Localidad simple","centroide":{"lat":-26.2930794265319,"lon":-53.7569299362558},"departamento":{"id":"54049","nombre":"General Manuel Belgrano"},"id":"54049030","localidad_censal":{"id":"54049030","nombre":"Dos Hermanas"},"municipio":{"id":"540175","nombre":"Bernardo de Irigoyen"},"nombre":"Dos Hermanas","provincia":{"id":"54","nombre":"Misiones"}},{"categoria":"Localidad simple","centroide":{"lat":-25.7709613454189,"lon":-53.8551809061342},"departamento":{"id":"54049","nombre":"General Manuel Belgrano"},"id":"54049040","localidad_censal":{"id":"54049040","nombre":"Integración"},"municipio":{"id":"540182","nombre":"Comandante Andresito"},"nombre":"Integración","provincia":{"id":"54","nombre":"Misiones"}},{"categoria":"Localidad simple","centroide":{"lat":-25.5962144012714,"lon":-54.0024142431872},"departamento":{"id":"54049","nombre":"General Manuel Belgrano"},"id":"54049045","localidad_censal":{"id":"54049045","nombre":"Puerto Andresito"},"municipio":{"id":"540182","nombre":"Comandante Andresito"},"nombre":"Puerto Andresito","provincia":{"id":"54","nombre":"Misiones"}},{"categoria":"Localidad simple","centroide":{"lat":-25.7858361976721,"lon":-54.0389539830062},"departamento":{"id":"54049","nombre":"General Manuel Belgrano"},"id":"54049047","localidad_censal":{"id":"54049047","nombre":"Puerto Deseado"},"municipio":{"id":"540182","nombre":"Comandante Andresito"},"nombre":"Puerto Deseado","provincia":{"id":"54","nombre":"Misiones"}},{"categoria":"Localidad simple","centroide":{"lat":-26.0573709006984,"lon":-53.7341195284472},"departamento":{"id":"54049","nombre":"General Manuel Belgrano"},"id":"54049050","localidad_censal":{"id":"54049050","nombre":"San Antonio"},"municipio":{"id":"540189","nombre":"San Antonio"},"nombre":"San Antonio","provincia":{"id":"54","nombre":"Misiones"}},{"categoria":"Localidad simple","centroide":{"lat":-25.9331145756288,"lon":-53.9329622012243},"departamento":{"id":"54049","nombre":"General Manuel Belgrano"},"id":"54049043","localidad_censal":{"id":"54049043","nombre":"Piñalito Norte"},"municipio":{"id":"540189","nombre":"San Antonio"},"nombre":"Piñalito Norte","provincia":{"id":"54","nombre":"Misiones"}},{"categoria":"Localidad simple","centroide":{"lat":-26.255330197167,"lon":-53.6467345738917},"departamento":{"id":"54049","nombre":"General Manuel Belgrano"},"id":"54049020","localidad_censal":{"id":"54049020","nombre":"Bernardo de Irigoyen"},"municipio":{"id":"540175","nombre":"Bernardo de Irigoyen"},"nombre":"Bernardo de Irigoyen","provincia":{"id":"54","nombre":"Misiones"}},{"categoria":"Localidad simple","centroide":{"lat":-27.2975110360397,"lon":-54.1975456175872},"departamento":{"id":"54056","nombre":"Guaraní"},"id":"54056010","localidad_censal":{"id":"54056010","nombre":"El Soberbio"},"municipio":{"id":"540196","nombre":"El Soberbio"},"nombre":"El Soberbio","provincia":{"id":"54","nombre":"Misiones"}},{"categoria":"Localidad simple","centroide":{"lat":-26.7434318690681,"lon":-54.2974537158681},"departamento":{"id":"54056","nombre":"Guaraní"},"id":"54056020","localidad_censal":{"id":"54056020","nombre":"Fracrán"},"municipio":{"id":"540203","nombre":"San Vicente"},"nombre":"Fracrán","provincia":{"id":"54","nombre":"Misiones"}},{"categoria":"Localidad simple","centroide":{"lat":-26.9932973869327,"lon":-54.4866189716912},"departamento":{"id":"54056","nombre":"Guaraní"},"id":"54056030","localidad_censal":{"id":"54056030","nombre":"San Vicente"},"municipio":{"id":"540203","nombre":"San Vicente"},"nombre":"San Vicente","provincia":{"id":"54","nombre":"Misiones"}},{"categoria":"Localidad simple","centroide":{"lat":-25.9214681520576,"lon":-54.5843176057696},"departamento":{"id":"54063","nombre":"Iguazú"},"id":"54063020","localidad_censal":{"id":"54063020","nombre":"Puerto Libertad"},"municipio":{"id":"540224","nombre":"Libertad"},"nombre":"Puerto Libertad","provincia":{"id":"54","nombre":"Misiones"}},{"categoria":"Localidad simple","centroide":{"lat":-25.5972100979327,"lon":-54.5772230013845},"departamento":{"id":"54063","nombre":"Iguazú"},"id":"54063030","localidad_censal":{"id":"54063030","nombre":"Puerto Iguazú"},"municipio":{"id":"540217","nombre":"Puerto Iguazú"},"nombre":"Puerto Iguazú","provincia":{"id":"54","nombre":"Misiones"}},{"categoria":"Localidad simple","centroide":{"lat":-25.9441957737229,"lon":-54.5449410673016},"departamento":{"id":"54063","nombre":"Iguazú"},"id":"54063035","localidad_censal":{"id":"54063035","nombre":"Villa Cooperativa"},"municipio":{"id":"540224","nombre":"Libertad"},"nombre":"Villa Cooperativa","provincia":{"id":"54","nombre":"Misiones"}},{"categoria":"Localidad simple","centroide":{"lat":-26.0206123976287,"lon":-54.6152011709047},"departamento":{"id":"54063","nombre":"Iguazú"},"id":"54063010","localidad_censal":{"id":"54063010","nombre":"Puerto Esperanza"},"municipio":{"id":"540210","nombre":"Puerto Esperanza"},"nombre":"Puerto Esperanza","provincia":{"id":"54","nombre":"Misiones"}},{"categoria":"Localidad simple","centroide":{"lat":-25.9733663759994,"lon":-54.5630397012731},"departamento":{"id":"54063","nombre":"Iguazú"},"id":"54063040","localidad_censal":{"id":"54063040","nombre":"Colonia Wanda"},"municipio":{"id":"540231","nombre":"Colonia Wanda"},"nombre":"Colonia Wanda","provincia":{"id":"54","nombre":"Misiones"}},{"categoria":"Localidad simple","centroide":{"lat":-27.5081178906152,"lon":-55.4035236654766},"departamento":{"id":"54070","nombre":"Leandro N. Alem"},"id":"54070010","localidad_censal":{"id":"54070010","nombre":"Almafuerte"},"municipio":{"id":"540238","nombre":"Almafuerte"},"nombre":"Almafuerte","provincia":{"id":"54","nombre":"Misiones"}},{"categoria":"Localidad simple","centroide":{"lat":-27.4848753058028,"lon":-55.2989609617802},"departamento":{"id":"54070","nombre":"Leandro N. Alem"},"id":"54070030","localidad_censal":{"id":"54070030","nombre":"Caá - Yarí"},"municipio":{"id":"540252","nombre":"Caá Yarí"},"nombre":"Caá - Yarí","provincia":{"id":"54","nombre":"Misiones"}},{"categoria":"Localidad simple","centroide":{"lat":-27.6335752411436,"lon":-55.4974159907849},"departamento":{"id":"54070","nombre":"Leandro N. Alem"},"id":"54070040","localidad_censal":{"id":"54070040","nombre":"Cerro Azul"},"municipio":{"id":"540259","nombre":"Cerro Azul"},"nombre":"Cerro Azul","provincia":{"id":"54","nombre":"Misiones"}},{"categoria":"Localidad simple","centroide":{"lat":-27.6990752244098,"lon":-55.251821768321},"departamento":{"id":"54070","nombre":"Leandro N. Alem"},"id":"54070050","localidad_censal":{"id":"54070050","nombre":"Dos Arroyos"},"municipio":{"id":"540266","nombre":"Dos Arroyos"},"nombre":"Dos Arroyos","provincia":{"id":"54","nombre":"Misiones"}},{"categoria":"Localidad simple","centroide":{"lat":-27.6663565740309,"lon":-55.2134709752043},"departamento":{"id":"54070","nombre":"Leandro N. Alem"},"id":"54070060","localidad_censal":{"id":"54070060","nombre":"Gobernador López"},"municipio":{"id":"540273","nombre":"Gobernador López"},"nombre":"Gobernador López","provincia":{"id":"54","nombre":"Misiones"}},{"categoria":"Localidad simple","centroide":{"lat":-27.6037316512863,"lon":-55.3236193379634},"departamento":{"id":"54070","nombre":"Leandro N. Alem"},"id":"54070070","localidad_censal":{"id":"54070070","nombre":"Leandro N. Alem"},"municipio":{"id":"540280","nombre":"Leandro N. Alem"},"nombre":"Leandro N. Alem","provincia":{"id":"54","nombre":"Misiones"}},{"categoria":"Localidad simple","centroide":{"lat":-27.5675867451281,"lon":-55.5022799674985},"departamento":{"id":"54070","nombre":"Leandro N. Alem"},"id":"54070080","localidad_censal":{"id":"54070080","nombre":"Olegario V. Andrade"},"municipio":{"id":"540287","nombre":"Olegario V. Andrade"},"nombre":"Olegario V. Andrade","provincia":{"id":"54","nombre":"Misiones"}},{"categoria":"Componente de localidad compuesta","centroide":{"lat":-27.5654351670216,"lon":-55.3201980962383},"departamento":{"id":"54070","nombre":"Leandro N. Alem"},"id":"54070090","localidad_censal":{"id":"54070090","nombre":"Villa Libertad"},"municipio":{"id":"540280","nombre":"Leandro N. Alem"},"nombre":"Villa Libertad","provincia":{"id":"54","nombre":"Misiones"}},{"categoria":"Localidad simple","centroide":{"lat":-27.6982566288122,"lon":-55.4048641020127},"departamento":{"id":"54070","nombre":"Leandro N. Alem"},"id":"54070020","localidad_censal":{"id":"54070020","nombre":"Arroyo del Medio"},"municipio":{"id":"540245","nombre":"Arroyo del Medio"},"nombre":"Arroyo del Medio","provincia":{"id":"54","nombre":"Misiones"}},{"categoria":"Localidad simple","centroide":{"lat":-26.9283151085215,"lon":-55.0572981188178},"departamento":{"id":"54077","nombre":"Libertador General San Martín"},"id":"54077010","localidad_censal":{"id":"54077010","nombre":"Capioví"},"municipio":{"id":"540294","nombre":"Capioví"},"nombre":"Capioví","provincia":{"id":"54","nombre":"Misiones"}},{"categoria":"Localidad simple","centroide":{"lat":-26.7136471487898,"lon":-54.8140478333356},"departamento":{"id":"54077","nombre":"Libertador General San Martín"},"id":"54077020","localidad_censal":{"id":"54077020","nombre":"El Alcázar"},"municipio":{"id":"540301","nombre":"El Alcázar"},"nombre":"El Alcázar","provincia":{"id":"54","nombre":"Misiones"}},{"categoria":"Localidad simple","centroide":{"lat":-26.8211256600335,"lon":-54.9577454257086},"departamento":{"id":"54077","nombre":"Libertador General San Martín"},"id":"54077030","localidad_censal":{"id":"54077030","nombre":"Garuhapé"},"municipio":{"id":"540308","nombre":"Garuhapé"},"nombre":"Garuhapé","provincia":{"id":"54","nombre":"Misiones"}},{"categoria":"Localidad simple","centroide":{"lat":-26.8638507233861,"lon":-55.0451619807519},"departamento":{"id":"54077","nombre":"Libertador General San Martín"},"id":"54077040","localidad_censal":{"id":"54077040","nombre":"Mbopicuá"},"municipio":{"id":"540322","nombre":"Puerto Rico"},"nombre":"Mbopicuá","provincia":{"id":"54","nombre":"Misiones"}},{"categoria":"Localidad simple","centroide":{"lat":-26.8085916829121,"lon":-55.0221268413538},"departamento":{"id":"54077","nombre":"Libertador General San Martín"},"id":"54077060","localidad_censal":{"id":"54077060","nombre":"Puerto Rico"},"municipio":{"id":"540322","nombre":"Puerto Rico"},"nombre":"Puerto Rico","provincia":{"id":"54","nombre":"Misiones"}},{"categoria":"Localidad simple","centroide":{"lat":-26.9704326336471,"lon":-55.0522224925892},"departamento":{"id":"54077","nombre":"Libertador General San Martín"},"id":"54077070","localidad_censal":{"id":"54077070","nombre":"Ruiz de Montoya"},"municipio":{"id":"540329","nombre":"Ruiz de Montoya"},"nombre":"Ruiz de Montoya","provincia":{"id":"54","nombre":"Misiones"}},{"categoria":"Localidad simple","centroide":{"lat":-26.8082370998635,"lon":-54.9894731619228},"departamento":{"id":"54077","nombre":"Libertador General San Martín"},"id":"54077080","localidad_censal":{"id":"54077080","nombre":"San Alberto"},"municipio":{"id":"540322","nombre":"Puerto Rico"},"nombre":"San Alberto","provincia":{"id":"54","nombre":"Misiones"}},{"categoria":"Localidad simple","centroide":{"lat":-26.8536577633327,"lon":-54.8887924064813},"departamento":{"id":"54077","nombre":"Libertador General San Martín"},"id":"54077100","localidad_censal":{"id":"54077100","nombre":"San Miguel"},"municipio":{"id":"540308","nombre":"Garuhapé"},"nombre":"San Miguel","provincia":{"id":"54","nombre":"Misiones"}},{"categoria":"Localidad simple","centroide":{"lat":-26.9433284445605,"lon":-55.0955190135295},"departamento":{"id":"54077","nombre":"Libertador General San Martín"},"id":"54077110","localidad_censal":{"id":"54077110","nombre":"Villa Akerman"},"municipio":{"id":"540294","nombre":"Capioví"},"nombre":"Villa Akerman","provincia":{"id":"54","nombre":"Misiones"}},{"categoria":"Localidad simple","centroide":{"lat":-26.83689267867,"lon":-54.7530630524833},"departamento":{"id":"54077","nombre":"Libertador General San Martín"},"id":"54077120","localidad_censal":{"id":"54077120","nombre":"Villa Urrutia"},"municipio":{"id":"540301","nombre":"El Alcázar"},"nombre":"Villa Urrutia","provincia":{"id":"54","nombre":"Misiones"}},{"categoria":"Localidad simple","centroide":{"lat":-26.9898467972313,"lon":-55.1658809660847},"departamento":{"id":"54077","nombre":"Libertador General San Martín"},"id":"54077050","localidad_censal":{"id":"54077050","nombre":"Puerto Leoni"},"municipio":{"id":"540315","nombre":"Puerto Leoni"},"nombre":"Puerto Leoni","provincia":{"id":"54","nombre":"Misiones"}},{"categoria":"Localidad simple","centroide":{"lat":-26.9237317461793,"lon":-55.1237542874982},"departamento":{"id":"54077","nombre":"Libertador General San Martín"},"id":"54077090","localidad_censal":{"id":"54077090","nombre":"San Gotardo"},"municipio":{"id":"540294","nombre":"Capioví"},"nombre":"San Gotardo","provincia":{"id":"54","nombre":"Misiones"}},{"categoria":"Localidad simple","centroide":{"lat":-26.891713188139,"lon":-55.07223995857},"departamento":{"id":"54077","nombre":"Libertador General San Martín"},"id":"54077015","localidad_censal":{"id":"54077015","nombre":"Capioviciño"},"municipio":{"id":"540294","nombre":"Capioví"},"nombre":"Capioviciño","provincia":{"id":"54","nombre":"Misiones"}},{"categoria":"Localidad simple","centroide":{"lat":-26.5502969535792,"lon":-54.6805451702411},"departamento":{"id":"54084","nombre":"Montecarlo"},"id":"54084003","localidad_censal":{"id":"54084003","nombre":"Barrio Cuatro Bocas"},"municipio":{"id":"540343","nombre":"Montecarlo"},"nombre":"Barrio Cuatro Bocas","provincia":{"id":"54","nombre":"Misiones"}},{"categoria":"Localidad simple","centroide":{"lat":-26.6055240102251,"lon":-54.6987074403571},"departamento":{"id":"54084","nombre":"Montecarlo"},"id":"54084005","localidad_censal":{"id":"54084005","nombre":"Barrio Guatambu"},"municipio":{"id":"540343","nombre":"Montecarlo"},"nombre":"Barrio Guatambu","provincia":{"id":"54","nombre":"Misiones"}},{"categoria":"Localidad simple","centroide":{"lat":-26.5295241003043,"lon":-54.7068049181182},"departamento":{"id":"54084","nombre":"Montecarlo"},"id":"54084007","localidad_censal":{"id":"54084007","nombre":"Bario Ita"},"municipio":{"id":"540343","nombre":"Montecarlo"},"nombre":"Bario Ita","provincia":{"id":"54","nombre":"Misiones"}},{"categoria":"Localidad simple","centroide":{"lat":-26.535391180415,"lon":-54.6497388775023},"departamento":{"id":"54084","nombre":"Montecarlo"},"id":"54084020","localidad_censal":{"id":"54084020","nombre":"Laharrague"},"municipio":{"id":"540343","nombre":"Montecarlo"},"nombre":"Laharrague","provincia":{"id":"54","nombre":"Misiones"}},{"categoria":"Localidad simple","centroide":{"lat":-26.5666537204477,"lon":-54.7661267981311},"departamento":{"id":"54084","nombre":"Montecarlo"},"id":"54084030","localidad_censal":{"id":"54084030","nombre":"Montecarlo"},"municipio":{"id":"540343","nombre":"Montecarlo"},"nombre":"Montecarlo","provincia":{"id":"54","nombre":"Misiones"}},{"categoria":"Localidad simple","centroide":{"lat":-26.5160511065749,"lon":-54.591418605974},"departamento":{"id":"54084","nombre":"Montecarlo"},"id":"54084040","localidad_censal":{"id":"54084040","nombre":"Piray Kilómetro 18"},"municipio":{"id":"540350","nombre":"Puerto Piray"},"nombre":"Piray Kilómetro 18","provincia":{"id":"54","nombre":"Misiones"}},{"categoria":"Localidad simple","centroide":{"lat":-26.7174357097755,"lon":-54.7200614261087},"departamento":{"id":"54084","nombre":"Montecarlo"},"id":"54084060","localidad_censal":{"id":"54084060","nombre":"Tarumá"},"municipio":{"id":"540336","nombre":"Caraguatay"},"nombre":"Tarumá","provincia":{"id":"54","nombre":"Misiones"}},{"categoria":"Localidad simple","centroide":{"lat":-26.498904586753,"lon":-54.6783012691844},"departamento":{"id":"54084","nombre":"Montecarlo"},"id":"54084070","localidad_censal":{"id":"54084070","nombre":"Villa Parodi"},"municipio":{"id":"540343","nombre":"Montecarlo"},"nombre":"Villa Parodi","provincia":{"id":"54","nombre":"Misiones"}},{"categoria":"Localidad simple","centroide":{"lat":-26.4673386069983,"lon":-54.7180267487723},"departamento":{"id":"54084","nombre":"Montecarlo"},"id":"54084050","localidad_censal":{"id":"54084050","nombre":"Puerto Piray"},"municipio":{"id":"540350","nombre":"Puerto Piray"},"nombre":"Puerto Piray","provincia":{"id":"54","nombre":"Misiones"}},{"categoria":"Localidad simple","centroide":{"lat":-26.6572810012338,"lon":-54.7391795233471},"departamento":{"id":"54084","nombre":"Montecarlo"},"id":"54084010","localidad_censal":{"id":"54084010","nombre":"Caraguatay"},"municipio":{"id":"540336","nombre":"Caraguatay"},"nombre":"Caraguatay","provincia":{"id":"54","nombre":"Misiones"}},{"categoria":"Localidad simple","centroide":{"lat":-27.3600310986771,"lon":-55.2313265030991},"departamento":{"id":"54091","nombre":"Oberá"},"id":"54091010","localidad_censal":{"id":"54091010","nombre":"Colonia Alberdi"},"municipio":{"id":"540371","nombre":"Colonia Alberdi"},"nombre":"Colonia Alberdi","provincia":{"id":"54","nombre":"Misiones"}},{"categoria":"Componente de localidad compuesta","centroide":{"lat":-27.4703554822804,"lon":-55.080588446021},"departamento":{"id":"54091","nombre":"Oberá"},"id":"54091017","localidad_censal":{"id":"54091017","nombre":"Barrio Escuela 633"},"municipio":{"id":"540399","nombre":"Oberá"},"nombre":"Barrio Escuela 633","provincia":{"id":"54","nombre":"Misiones"}},{"categoria":"Localidad simple","centroide":{"lat":-27.4542687586517,"lon":-55.022947769629},"departamento":{"id":"54091","nombre":"Oberá"},"id":"54091020","localidad_censal":{"id":"54091020","nombre":"Campo Ramón"},"municipio":{"id":"540357","nombre":"Campo Ramón"},"nombre":"Campo Ramón","provincia":{"id":"54","nombre":"Misiones"}},{"categoria":"Localidad simple","centroide":{"lat":-27.3309716091006,"lon":-55.054252029246},"departamento":{"id":"54091","nombre":"Oberá"},"id":"54091030","localidad_censal":{"id":"54091030","nombre":"Campo Viera"},"municipio":{"id":"540364","nombre":"Campo Viera"},"nombre":"Campo Viera","provincia":{"id":"54","nombre":"Misiones"}},{"categoria":"Localidad simple","centroide":{"lat":-27.4263468328633,"lon":-55.1696034483008},"departamento":{"id":"54091","nombre":"Oberá"},"id":"54091050","localidad_censal":{"id":"54091050","nombre":"General Alvear"},"municipio":{"id":"540378","nombre":"General Alvear"},"nombre":"General Alvear","provincia":{"id":"54","nombre":"Misiones"}},{"categoria":"Localidad simple","centroide":{"lat":-27.5231765026164,"lon":-55.1576461294309},"departamento":{"id":"54091","nombre":"Oberá"},"id":"54091060","localidad_censal":{"id":"54091060","nombre":"Guaraní"},"municipio":{"id":"540385","nombre":"Guaraní"},"nombre":"Guaraní","provincia":{"id":"54","nombre":"Misiones"}},{"categoria":"Localidad simple","centroide":{"lat":-27.5576633248325,"lon":-55.0762633853702},"departamento":{"id":"54091","nombre":"Oberá"},"id":"54091070","localidad_censal":{"id":"54091070","nombre":"Los Helechos"},"municipio":{"id":"540392","nombre":"Los Helechos"},"nombre":"Los Helechos","provincia":{"id":"54","nombre":"Misiones"}},{"categoria":"Componente de localidad compuesta","centroide":{"lat":-27.4867909555976,"lon":-55.1200569831231},"departamento":{"id":"54091","nombre":"Oberá"},"id":"54091080","localidad_censal":{"id":"54091080","nombre":"Oberá"},"municipio":{"id":"540399","nombre":"Oberá"},"nombre":"Oberá","provincia":{"id":"54","nombre":"Misiones"}},{"categoria":"Localidad simple","centroide":{"lat":-27.7220280431487,"lon":-54.914825780103},"departamento":{"id":"54091","nombre":"Oberá"},"id":"54091090","localidad_censal":{"id":"54091090","nombre":"Panambí"},"municipio":{"id":"540406","nombre":"Panambí"},"nombre":"Panambí","provincia":{"id":"54","nombre":"Misiones"}},{"categoria":"Localidad simple","centroide":{"lat":-27.668501220684,"lon":-54.9826786595937},"departamento":{"id":"54091","nombre":"Oberá"},"id":"54091100","localidad_censal":{"id":"54091100","nombre":"Panambí Kilómetro 8"},"municipio":{"id":"540406","nombre":"Panambí"},"nombre":"Panambí Kilómetro 8","provincia":{"id":"54","nombre":"Misiones"}},{"categoria":"Localidad simple","centroide":{"lat":-27.7091503252118,"lon":-54.9674495140254},"departamento":{"id":"54091","nombre":"Oberá"},"id":"54091105","localidad_censal":{"id":"54091105","nombre":"Panambi Kilómetro 15"},"municipio":{"id":"540406","nombre":"Panambí"},"nombre":"Panambi Kilómetro 15","provincia":{"id":"54","nombre":"Misiones"}},{"categoria":"Localidad simple","centroide":{"lat":-27.4829003439968,"lon":-54.9648326532294},"departamento":{"id":"54091","nombre":"Oberá"},"id":"54091120","localidad_censal":{"id":"54091120","nombre":"Villa Bonita"},"municipio":{"id":"540357","nombre":"Campo Ramón"},"nombre":"Villa Bonita","provincia":{"id":"54","nombre":"Misiones"}},{"categoria":"Localidad simple","centroide":{"lat":-27.4660441598294,"lon":-55.275544957396},"departamento":{"id":"54091","nombre":"Oberá"},"id":"54091110","localidad_censal":{"id":"54091110","nombre":"San Martín"},"municipio":{"id":"540413","nombre":"San Martín"},"nombre":"San Martín","provincia":{"id":"54","nombre":"Misiones"}},{"categoria":"Localidad simple","centroide":{"lat":-27.6244592236857,"lon":-55.0394679958911},"departamento":{"id":"54091","nombre":"Oberá"},"id":"54091013","localidad_censal":{"id":"54091013","nombre":"Barrio Escuela 461"},"municipio":{"id":"540406","nombre":"Panambí"},"nombre":"Barrio Escuela 461","provincia":{"id":"54","nombre":"Misiones"}},{"categoria":"Localidad simple","centroide":{"lat":-27.4951949137245,"lon":-55.1987279548598},"departamento":{"id":"54091","nombre":"Oberá"},"id":"54091040","localidad_censal":{"id":"54091040","nombre":"El Salto"},"municipio":{"id":"540399","nombre":"Oberá"},"nombre":"El Salto","provincia":{"id":"54","nombre":"Misiones"}},{"categoria":"Localidad simple","centroide":{"lat":-26.98199339199,"lon":-55.3182255547661},"departamento":{"id":"54098","nombre":"San Ignacio"},"id":"54098010","localidad_censal":{"id":"54098010","nombre":"Colonia Polana"},"municipio":{"id":"540420","nombre":"Colonia Polana"},"nombre":"Colonia Polana","provincia":{"id":"54","nombre":"Misiones"}},{"categoria":"Localidad simple","centroide":{"lat":-27.1294685196132,"lon":-55.5108314506366},"departamento":{"id":"54098","nombre":"San Ignacio"},"id":"54098020","localidad_censal":{"id":"54098020","nombre":"Corpus"},"municipio":{"id":"540427","nombre":"Corpus Christi"},"nombre":"Corpus","provincia":{"id":"54","nombre":"Misiones"}},{"categoria":"Localidad simple","centroide":{"lat":-27.3554312415588,"lon":-55.3384703486921},"departamento":{"id":"54098","nombre":"San Ignacio"},"id":"54098030","localidad_censal":{"id":"54098030","nombre":"Domingo Savio"},"municipio":{"id":"540462","nombre":"San Ignacio"},"nombre":"Domingo Savio","provincia":{"id":"54","nombre":"Misiones"}},{"categoria":"Localidad simple","centroide":{"lat":-27.1078663191089,"lon":-55.3766161319568},"departamento":{"id":"54098","nombre":"San Ignacio"},"id":"54098040","localidad_censal":{"id":"54098040","nombre":"General Urquiza"},"municipio":{"id":"540434","nombre":"General Urquiza"},"nombre":"General Urquiza","provincia":{"id":"54","nombre":"Misiones"}},{"categoria":"Localidad simple","centroide":{"lat":-27.1900611618491,"lon":-55.4693193128167},"departamento":{"id":"54098","nombre":"San Ignacio"},"id":"54098050","localidad_censal":{"id":"54098050","nombre":"Gobernador Roca"},"municipio":{"id":"540441","nombre":"Gobernador Roca"},"nombre":"Gobernador Roca","provincia":{"id":"54","nombre":"Misiones"}},{"categoria":"Localidad simple","centroide":{"lat":-27.1097342966114,"lon":-55.3444584490473},"departamento":{"id":"54098","nombre":"San Ignacio"},"id":"54098060","localidad_censal":{"id":"54098060","nombre":"Helvecia"},"municipio":{"id":"540448","nombre":"Hipólito Yrigoyen"},"nombre":"Helvecia","provincia":{"id":"54","nombre":"Misiones"}},{"categoria":"Localidad simple","centroide":{"lat":-27.0857111252786,"lon":-55.287419647088},"departamento":{"id":"54098","nombre":"San Ignacio"},"id":"54098070","localidad_censal":{"id":"54098070","nombre":"Hipólito Yrigoyen"},"municipio":{"id":"540448","nombre":"Hipólito Yrigoyen"},"nombre":"Hipólito Yrigoyen","provincia":{"id":"54","nombre":"Misiones"}},{"categoria":"Localidad simple","centroide":{"lat":-26.9717258466938,"lon":-55.2497234913103},"departamento":{"id":"54098","nombre":"San Ignacio"},"id":"54098090","localidad_censal":{"id":"54098090","nombre":"Oasis"},"municipio":{"id":"540455","nombre":"Jardín América"},"nombre":"Oasis","provincia":{"id":"54","nombre":"Misiones"}},{"categoria":"Localidad simple","centroide":{"lat":-27.2142458424807,"lon":-55.4200172653031},"departamento":{"id":"54098","nombre":"San Ignacio"},"id":"54098100","localidad_censal":{"id":"54098100","nombre":"Roca Chica"},"municipio":{"id":"540441","nombre":"Gobernador Roca"},"nombre":"Roca Chica","provincia":{"id":"54","nombre":"Misiones"}},{"categoria":"Localidad simple","centroide":{"lat":-27.2586133303264,"lon":-55.5389747941103},"departamento":{"id":"54098","nombre":"San Ignacio"},"id":"54098110","localidad_censal":{"id":"54098110","nombre":"San Ignacio"},"municipio":{"id":"540462","nombre":"San Ignacio"},"nombre":"San Ignacio","provincia":{"id":"54","nombre":"Misiones"}},{"categoria":"Localidad simple","centroide":{"lat":-27.0431587896035,"lon":-55.2270180224147},"departamento":{"id":"54098","nombre":"San Ignacio"},"id":"54098080","localidad_censal":{"id":"54098080","nombre":"Jardín América"},"municipio":{"id":"540455","nombre":"Jardín América"},"nombre":"Jardín América","provincia":{"id":"54","nombre":"Misiones"}},{"categoria":"Localidad simple","centroide":{"lat":-27.1401239915784,"lon":-55.4085092855596},"departamento":{"id":"54098","nombre":"San Ignacio"},"id":"54098120","localidad_censal":{"id":"54098120","nombre":"Santo Pipó"},"municipio":{"id":"540469","nombre":"Santo Pipó"},"nombre":"Santo Pipó","provincia":{"id":"54","nombre":"Misiones"}},{"categoria":"Localidad simple","centroide":{"lat":-27.1148151629571,"lon":-55.3838706211331},"departamento":{"id":"54098","nombre":"San Ignacio"},"id":"54098005","localidad_censal":{"id":"54098005","nombre":"Barrio Tungoil"},"municipio":{"id":"540469","nombre":"Santo Pipó"},"nombre":"Barrio Tungoil","provincia":{"id":"54","nombre":"Misiones"}},{"categoria":"Localidad simple","centroide":{"lat":-27.6336169442892,"lon":-55.0855260883891},"departamento":{"id":"54105","nombre":"San Javier"},"id":"54105010","localidad_censal":{"id":"54105010","nombre":"Florentino Ameghino"},"municipio":{"id":"540476","nombre":"Florentino Ameghino"},"nombre":"Florentino Ameghino","provincia":{"id":"54","nombre":"Misiones"}},{"categoria":"Localidad simple","centroide":{"lat":-27.8714005672072,"lon":-55.262214014731},"departamento":{"id":"54105","nombre":"San Javier"},"id":"54105020","localidad_censal":{"id":"54105020","nombre":"Itacaruaré"},"municipio":{"id":"540483","nombre":"Itacaruaré"},"nombre":"Itacaruaré","provincia":{"id":"54","nombre":"Misiones"}},{"categoria":"Localidad simple","centroide":{"lat":-27.7120413813374,"lon":-55.1574339761207},"departamento":{"id":"54105","nombre":"San Javier"},"id":"54105030","localidad_censal":{"id":"54105030","nombre":"Mojón Grande"},"municipio":{"id":"540490","nombre":"Mojón Grande"},"nombre":"Mojón Grande","provincia":{"id":"54","nombre":"Misiones"}},{"categoria":"Localidad simple","centroide":{"lat":-27.8694801169929,"lon":-55.1387152363081},"departamento":{"id":"54105","nombre":"San Javier"},"id":"54105040","localidad_censal":{"id":"54105040","nombre":"San Javier"},"municipio":{"id":"540497","nombre":"San Javier"},"nombre":"San Javier","provincia":{"id":"54","nombre":"Misiones"}},{"categoria":"Localidad simple","centroide":{"lat":-26.6870728866734,"lon":-54.20307320559},"departamento":{"id":"54112","nombre":"San Pedro"},"id":"54112020","localidad_censal":{"id":"54112020","nombre":"Paraíso"},"municipio":{"id":"540504","nombre":"San Pedro"},"nombre":"Paraíso","provincia":{"id":"54","nombre":"Misiones"}},{"categoria":"Localidad simple","centroide":{"lat":-26.4261022476787,"lon":-53.8414300402392},"departamento":{"id":"54112","nombre":"San Pedro"},"id":"54112030","localidad_censal":{"id":"54112030","nombre":"Piñalito Sur"},"municipio":{"id":"540504","nombre":"San Pedro"},"nombre":"Piñalito Sur","provincia":{"id":"54","nombre":"Misiones"}},{"categoria":"Localidad simple","centroide":{"lat":-26.6255314047977,"lon":-54.1163019079878},"departamento":{"id":"54112","nombre":"San Pedro"},"id":"54112040","localidad_censal":{"id":"54112040","nombre":"San Pedro"},"municipio":{"id":"540504","nombre":"San Pedro"},"nombre":"San Pedro","provincia":{"id":"54","nombre":"Misiones"}},{"categoria":"Localidad simple","centroide":{"lat":-26.4699728950091,"lon":-53.8911261704341},"departamento":{"id":"54112","nombre":"San Pedro"},"id":"54112050","localidad_censal":{"id":"54112050","nombre":"Tobuna"},"municipio":{"id":"540504","nombre":"San Pedro"},"nombre":"Tobuna","provincia":{"id":"54","nombre":"Misiones"}},{"categoria":"Localidad simple","centroide":{"lat":-26.5420991404552,"lon":-53.9418790885698},"departamento":{"id":"54112","nombre":"San Pedro"},"id":"54112010","localidad_censal":{"id":"54112010","nombre":"Cruce Caballero"},"municipio":{"id":"540504","nombre":"San Pedro"},"nombre":"Cruce Caballero","provincia":{"id":"54","nombre":"Misiones"}},{"categoria":"Localidad simple","centroide":{"lat":-27.5689511294388,"lon":-54.6830406275671},"departamento":{"id":"54119","nombre":"25 de Mayo"},"id":"54119010","localidad_censal":{"id":"54119010","nombre":"Alba Posse"},"municipio":{"id":"540511","nombre":"Alba Posse"},"nombre":"Alba Posse","provincia":{"id":"54","nombre":"Misiones"}},{"categoria":"Localidad simple","centroide":{"lat":-27.4394008738681,"lon":-54.3537093089714},"departamento":{"id":"54119","nombre":"25 de Mayo"},"id":"54119025","localidad_censal":{"id":"54119025","nombre":"Alicia Baja"},"municipio":{"id":"540518","nombre":"Colonia Aurora"},"nombre":"Alicia Baja","provincia":{"id":"54","nombre":"Misiones"}},{"categoria":"Localidad simple","centroide":{"lat":-27.4737245940895,"lon":-54.5241087843641},"departamento":{"id":"54119","nombre":"25 de Mayo"},"id":"54119030","localidad_censal":{"id":"54119030","nombre":"Colonia Aurora"},"municipio":{"id":"540518","nombre":"Colonia Aurora"},"nombre":"Colonia Aurora","provincia":{"id":"54","nombre":"Misiones"}},{"categoria":"Localidad simple","centroide":{"lat":-27.4626545241134,"lon":-54.7453180693087},"departamento":{"id":"54119","nombre":"25 de Mayo"},"id":"54119040","localidad_censal":{"id":"54119040","nombre":"San Francisco de Asís"},"municipio":{"id":"540511","nombre":"Alba Posse"},"nombre":"San Francisco de Asís","provincia":{"id":"54","nombre":"Misiones"}},{"categoria":"Localidad simple","centroide":{"lat":-27.5203237893029,"lon":-54.7279076953011},"departamento":{"id":"54119","nombre":"25 de Mayo"},"id":"54119050","localidad_censal":{"id":"54119050","nombre":"Santa Rita"},"municipio":{"id":"540511","nombre":"Alba Posse"},"nombre":"Santa Rita","provincia":{"id":"54","nombre":"Misiones"}},{"categoria":"Localidad simple","centroide":{"lat":-27.3781787041061,"lon":-54.7448775164087},"departamento":{"id":"54119","nombre":"25 de Mayo"},"id":"54119060","localidad_censal":{"id":"54119060","nombre":"25 de Mayo"},"municipio":{"id":"540525","nombre":"25 de Mayo"},"nombre":"25 de Mayo","provincia":{"id":"54","nombre":"Misiones"}},{"categoria":"Localidad simple","centroide":{"lat":-27.3778182174267,"lon":-54.3520980104308},"departamento":{"id":"54119","nombre":"25 de Mayo"},"id":"54119020","localidad_censal":{"id":"54119020","nombre":"Alicia Alta"},"municipio":{"id":"540518","nombre":"Colonia Aurora"},"nombre":"Alicia Alta","provincia":{"id":"54","nombre":"Misiones"}}],"parametros":{"max":999,"provincia":"misiones"},"total":140}
