{"localidades":[{"categoria":"Entidad","centroide":{"lat":-31.3968471082745,"lon":-64.0598690981123},"departamento":{"id":"14014","nombre":"Capital"},"id":"1401401002","localidad_censal":{"id":"14014010","nombre":"Córdoba"},"municipio":{"id":"140077","nombre":"Córdoba"},"nombre":"La Floresta","provincia":{"id":"14","nombre":"Córdoba"}},{"categoria":"Entidad","centroide":{"lat":-31.5376830055164,"lon":-64.3034450668409},"departamento":{"id":"14147","nombre":"Santa María"},"id":"1414719001","localidad_censal":{"id":"14147190","nombre":"Los Cedros"},"municipio":{"id":"143043","nombre":"Los Cedros"},"nombre":"Las Quintas","provincia":{"id":"14","nombre":"Córdoba"}},{"categoria":"Entidad","centroide":{"lat":-31.8563597027019,"lon":-64.379558101433},"departamento":{"id":"14007","nombre":"Calamuchita"},"id":"1400712001","localidad_censal":{"id":"14007120","nombre":"Los Molinos"},"municipio":{"id":"142042","nombre":"Los Molinos"},"nombre":"Los Molinos","provincia":{"id":"14","nombre":"Córdoba"}},{"categoria":"Entidad","centroide":{"lat":-31.8634283575435,"lon":-64.3749971056873},"departamento":{"id":"14007","nombre":"Calamuchita"},"id":"1400712002","localidad_censal":{"id":"14007120","nombre":"Los Molinos"},"municipio":{"id":"142042","nombre":"Los Molinos"},"nombre":"Villa San Miguel","provincia":{"id":"14","nombre":"Córdoba"}},{"categoria":"Entidad","centroide":{"lat":-32.0688257152431,"lon":-64.5743119195038},"departamento":{"id":"14007","nombre":"Calamuchita"},"id":"1400721001","localidad_censal":{"id":"14007210","nombre":"Santa Rosa de Calamuchita"},"municipio":{"id":"140035","nombre":"Santa Rosa de Calamuchita"},"nombre":"Santa Mónica","provincia":{"id":"14","nombre":"Córdoba"}},{"categoria":"Entidad","centroide":{"lat":-32.0699095313468,"lon":-64.5390917673383},"departamento":{"id":"14007","nombre":"Calamuchita"},"id":"1400721002","localidad_censal":{"id":"14007210","nombre":"Santa Rosa de Calamuchita"},"municipio":{"id":"140035","nombre":"Santa Rosa de Calamuchita"},"nombre":"Santa Rosa de Calamuchita","provincia":{"id":"14","nombre":"Córdoba"}},{"categoria":"Entidad","centroide":{"lat":-32.0989506129028,"lon":-64.5371421674543},"departamento":{"id":"14007","nombre":"Calamuchita"},"id":"1400721003","localidad_censal":{"id":"14007210","nombre":"Santa Rosa de Calamuchita"},"municipio":{"id":"140035","nombre":"Santa Rosa de Calamuchita"},"nombre":"San Ignacio (Loteo Vélez Crespo)","provincia":{"id":"14","nombre":"Córdoba"}},{"categoria":"Entidad","centroide":{"lat":-31.9103714592552,"lon":-64.5377457547189},"departamento":{"id":"14007","nombre":"Calamuchita"},"id":"1400727001","localidad_censal":{"id":"14007270","nombre":"Villa Ciudad Parque Los Reartes"},"municipio":{"id":"142084","nombre":"Villa Ciudad Parque Los Reartes"},"nombre":"Villa Ciudad Parque Los Reartes","provincia":{"id":"14","nombre":"Córdoba"}},{"categoria":"Entidad","centroide":{"lat":-31.9142481412202,"lon":-64.5259122990344},"departamento":{"id":"14007","nombre":"Calamuchita"},"id":"1400727002","localidad_censal":{"id":"14007270","nombre":"Villa Ciudad Parque Los Reartes"},"municipio":{"id":"142084","nombre":"Villa Ciudad Parque Los Reartes"},"nombre":"Va.Ciudad Pque.Los Reartes (1° Sección)","provincia":{"id":"14","nombre":"Córdoba"}},{"categoria":"Entidad","centroide":{"lat":-31.904934350576,"lon":-64.5613666819537},"departamento":{"id":"14007","nombre":"Calamuchita"},"id":"1400727003","localidad_censal":{"id":"14007270","nombre":"Villa Ciudad Parque Los Reartes"},"municipio":{"id":"142084","nombre":"Villa Ciudad Parque Los Reartes"},"nombre":"Va.Ciudad Pque.Los Reartes (3° Sección)","provincia":{"id":"14","nombre":"Córdoba"}},{"categoria":"Entidad","centroide":{"lat":-31.3685851015486,"lon":-64.0605223114939},"departamento":{"id":"14014","nombre":"Capital"},"id":"1401401001","localidad_censal":{"id":"14014010","nombre":"Córdoba"},"municipio":{"id":"140077","nombre":"Córdoba"},"nombre":"Jardín Arenales","provincia":{"id":"14","nombre":"Córdoba"}},{"categoria":"Entidad","centroide":{"lat":-31.4150461523809,"lon":-64.1791140755104},"departamento":{"id":"14014","nombre":"Capital"},"id":"1401401003","localidad_censal":{"id":"14014010","nombre":"Córdoba"},"municipio":{"id":"140077","nombre":"Córdoba"},"nombre":"Córdoba","provincia":{"id":"14","nombre":"Córdoba"}},{"categoria":"Entidad","centroide":{"lat":-31.3365282658298,"lon":-64.3371664162772},"departamento":{"id":"14021","nombre":"Colón"},"id":"1402115001","localidad_censal":{"id":"14021150","nombre":"La Calera"},"municipio":{"id":"140119","nombre":"La Calera"},"nombre":"Dumesnil","provincia":{"id":"14","nombre":"Córdoba"}},{"categoria":"Entidad","centroide":{"lat":-31.3503560189278,"lon":-64.3379432970611},"departamento":{"id":"14021","nombre":"Colón"},"id":"1402115002","localidad_censal":{"id":"14021150","nombre":"La Calera"},"municipio":{"id":"140119","nombre":"La Calera"},"nombre":"La Calera","provincia":{"id":"14","nombre":"Córdoba"}},{"categoria":"Entidad","centroide":{"lat":-31.351083671148,"lon":-64.3653214047373},"departamento":{"id":"14021","nombre":"Colón"},"id":"1402115003","localidad_censal":{"id":"14021150","nombre":"La Calera"},"municipio":{"id":"140119","nombre":"La Calera"},"nombre":"El Diquecito","provincia":{"id":"14","nombre":"Córdoba"}},{"categoria":"Entidad","centroide":{"lat":-31.1061995831956,"lon":-64.292290098635},"departamento":{"id":"14021","nombre":"Colón"},"id":"1402125001","localidad_censal":{"id":"14021250","nombre":"Salsipuedes"},"municipio":{"id":"140161","nombre":"Salsipuedes"},"nombre":"El Pueblito","provincia":{"id":"14","nombre":"Córdoba"}},{"categoria":"Entidad","centroide":{"lat":-31.13788084948,"lon":-64.2927724360505},"departamento":{"id":"14021","nombre":"Colón"},"id":"1402125002","localidad_censal":{"id":"14021250","nombre":"Salsipuedes"},"municipio":{"id":"140161","nombre":"Salsipuedes"},"nombre":"Salsipuedes","provincia":{"id":"14","nombre":"Córdoba"}},{"categoria":"Entidad","centroide":{"lat":-31.3077339671772,"lon":-64.1754423747112},"departamento":{"id":"14021","nombre":"Colón"},"id":"1402131001","localidad_censal":{"id":"14021310","nombre":"Parque Norte - Guinazu Norte"},"municipio":{"id":"140105","nombre":"Estación Juárez Celman"},"nombre":"Guiñazú Norte","provincia":{"id":"14","nombre":"Córdoba"}},{"categoria":"Entidad","centroide":{"lat":-31.3004990166318,"lon":-64.1769624238092},"departamento":{"id":"14021","nombre":"Colón"},"id":"1402131002","localidad_censal":{"id":"14021310","nombre":"Parque Norte - Guinazu Norte"},"municipio":{"id":"140105","nombre":"Estación Juárez Celman"},"nombre":"Parque Norte","provincia":{"id":"14","nombre":"Córdoba"}},{"categoria":"Entidad","centroide":{"lat":-31.307806181231,"lon":-64.1781444460259},"departamento":{"id":"14021","nombre":"Colón"},"id":"1402131004","localidad_censal":{"id":"14021310","nombre":"Parque Norte - Guinazu Norte"},"municipio":{"id":"140105","nombre":"Estación Juárez Celman"},"nombre":"1° de Agosto","provincia":{"id":"14","nombre":"Córdoba"}},{"categoria":"Entidad","centroide":{"lat":-31.3074897144828,"lon":-64.182727841378},"departamento":{"id":"14021","nombre":"Colón"},"id":"1402131005","localidad_censal":{"id":"14021310","nombre":"Parque Norte - Guinazu Norte"},"municipio":{"id":"140105","nombre":"Estación Juárez Celman"},"nombre":"Allmirante Brown","provincia":{"id":"14","nombre":"Córdoba"}},{"categoria":"Entidad","centroide":{"lat":-31.2957499892587,"lon":-64.1773285131189},"departamento":{"id":"14021","nombre":"Colón"},"id":"1402131006","localidad_censal":{"id":"14021310","nombre":"Parque Norte - Guinazu Norte"},"municipio":{"id":"140105","nombre":"Estación Juárez Celman"},"nombre":"Ciudad de los Niños","provincia":{"id":"14","nombre":"Córdoba"}},{"categoria":"Entidad","centroide":{"lat":-31.3058159712823,"lon":-64.1791873163252},"departamento":{"id":"14021","nombre":"Colón"},"id":"1402131007","localidad_censal":{"id":"14021310","nombre":"Parque Norte - Guinazu Norte"},"municipio":{"id":"140105","nombre":"Estación Juárez Celman"},"nombre":"Villa Pastora","provincia":{"id":"14","nombre":"Córdoba"}},{"categoria":"Entidad","centroide":{"lat":-31.2580420120475,"lon":-64.1662430936329},"departamento":{"id":"14021","nombre":"Colón"},"id":"1402132001","localidad_censal":{"id":"14021320","nombre":"Villa Los Llanos - Juárez Celman"},"municipio":{"id":"140105","nombre":"Estación Juárez Celman"},"nombre":"Juárez Celman","provincia":{"id":"14","nombre":"Córdoba"}},{"categoria":"Entidad","centroide":{"lat":-31.2764654286199,"lon":-64.1609048856654},"departamento":{"id":"14021","nombre":"Colón"},"id":"1402132002","localidad_censal":{"id":"14021320","nombre":"Villa Los Llanos - Juárez Celman"},"municipio":{"id":"140105","nombre":"Estación Juárez Celman"},"nombre":"Villa Los Llanos","provincia":{"id":"14","nombre":"Córdoba"}},{"categoria":"Entidad","centroide":{"lat":-31.3143488708372,"lon":-64.4615321569732},"departamento":{"id":"14091","nombre":"Punilla"},"id":"1409102001","localidad_censal":{"id":"14091020","nombre":"Bialet Massé"},"municipio":{"id":"140665","nombre":"Bialet Massé"},"nombre":"Bialet Massé","provincia":{"id":"14","nombre":"Córdoba"}},{"categoria":"Entidad","centroide":{"lat":-31.3239065791151,"lon":-64.4519728152522},"departamento":{"id":"14091","nombre":"Punilla"},"id":"1409102002","localidad_censal":{"id":"14091020","nombre":"Bialet Massé"},"municipio":{"id":"140665","nombre":"Bialet Massé"},"nombre":"San Roque del Lago","provincia":{"id":"14","nombre":"Córdoba"}},{"categoria":"Entidad","centroide":{"lat":-31.9602929716694,"lon":-65.065810087943},"departamento":{"id":"14133","nombre":"San Javier"},"id":"1413319001","localidad_censal":{"id":"14133190","nombre":"Villa de las Rosas"},"municipio":{"id":"141148","nombre":"Villa de las Rosas"},"nombre":"Alto Resbaloso - El Barrial","provincia":{"id":"14","nombre":"Córdoba"}},{"categoria":"Entidad","centroide":{"lat":-31.9578095999862,"lon":-65.0744379982192},"departamento":{"id":"14133","nombre":"San Javier"},"id":"1413319002","localidad_censal":{"id":"14133190","nombre":"Villa de las Rosas"},"municipio":{"id":"141148","nombre":"Villa de las Rosas"},"nombre":"El Pueblito","provincia":{"id":"14","nombre":"Córdoba"}},{"categoria":"Entidad","centroide":{"lat":-31.9451679685925,"lon":-65.064491322343},"departamento":{"id":"14133","nombre":"San Javier"},"id":"1413319003","localidad_censal":{"id":"14133190","nombre":"Villa de las Rosas"},"municipio":{"id":"141148","nombre":"Villa de las Rosas"},"nombre":"El Valle","provincia":{"id":"14","nombre":"Córdoba"}},{"categoria":"Entidad","centroide":{"lat":-31.9419650315312,"lon":-65.0251247511244},"departamento":{"id":"14133","nombre":"San Javier"},"id":"1413319004","localidad_censal":{"id":"14133190","nombre":"Villa de las Rosas"},"municipio":{"id":"141148","nombre":"Villa de las Rosas"},"nombre":"Las Chacras","provincia":{"id":"14","nombre":"Córdoba"}},{"categoria":"Entidad","centroide":{"lat":-31.9503622494173,"lon":-65.0539943338809},"departamento":{"id":"14133","nombre":"San Javier"},"id":"1413319005","localidad_censal":{"id":"14133190","nombre":"Villa de las Rosas"},"municipio":{"id":"141148","nombre":"Villa de las Rosas"},"nombre":"Villa de las Rosas","provincia":{"id":"14","nombre":"Córdoba"}},{"categoria":"Entidad","centroide":{"lat":-31.4416722128598,"lon":-64.3180023506966},"departamento":{"id":"14147","nombre":"Santa María"},"id":"1414703001","localidad_censal":{"id":"14147030","nombre":"Barrio Gilbert (1º de Mayo)"},"municipio":{"id":"141393","nombre":"Malagueño"},"nombre":"Barrio Gilbert","provincia":{"id":"14","nombre":"Córdoba"}},{"categoria":"Entidad","centroide":{"lat":-31.4402198498087,"lon":-64.3146100635254},"departamento":{"id":"14147","nombre":"Santa María"},"id":"1414703002","localidad_censal":{"id":"14147030","nombre":"Barrio Gilbert (1º de Mayo)"},"municipio":{"id":"141393","nombre":"Malagueño"},"nombre":"Tejas Tres","provincia":{"id":"14","nombre":"Córdoba"}},{"categoria":"Entidad","centroide":{"lat":-31.526484535565,"lon":-64.2814214559366},"departamento":{"id":"14147","nombre":"Santa María"},"id":"1414719002","localidad_censal":{"id":"14147190","nombre":"Los Cedros"},"municipio":{"id":"143043","nombre":"Los Cedros"},"nombre":"Los Cedros","provincia":{"id":"14","nombre":"Córdoba"}},{"categoria":"Entidad","centroide":{"lat":-31.7981315605128,"lon":-64.5163862272189},"departamento":{"id":"14147","nombre":"Santa María"},"id":"1414731001","localidad_censal":{"id":"14147310","nombre":"Villa Ciudad de América"},"municipio":{"id":"143078","nombre":"Villa Ciudad de América"},"nombre":"Barrio Villa del Parque","provincia":{"id":"14","nombre":"Córdoba"}},{"categoria":"Entidad","centroide":{"lat":-31.7832436719837,"lon":-64.5305212730134},"departamento":{"id":"14147","nombre":"Santa María"},"id":"1414731002","localidad_censal":{"id":"14147310","nombre":"Villa Ciudad de América"},"municipio":{"id":"143078","nombre":"Villa Ciudad de América"},"nombre":"Villa Ciudad de América","provincia":{"id":"14","nombre":"Córdoba"}},{"categoria":"Entidad","centroide":{"lat":-31.6184320255651,"lon":-64.3912763902413},"departamento":{"id":"14147","nombre":"Santa María"},"id":"1414732001","localidad_censal":{"id":"14147320","nombre":"Villa del Prado"},"municipio":{"id":"143085","nombre":"Villa del Prado"},"nombre":"Villa del Prado","provincia":{"id":"14","nombre":"Córdoba"}},{"categoria":"Entidad","centroide":{"lat":-31.6213166852746,"lon":-64.3820519076151},"departamento":{"id":"14147","nombre":"Santa María"},"id":"1414732002","localidad_censal":{"id":"14147320","nombre":"Villa del Prado"},"municipio":{"id":"143085","nombre":"Villa del Prado"},"nombre":"La Donosa","provincia":{"id":"14","nombre":"Córdoba"}},{"categoria":"Entidad","centroide":{"lat":-31.5844899986475,"lon":-64.356257424977},"departamento":{"id":"14147","nombre":"Santa María"},"id":"1414735001","localidad_censal":{"id":"14147350","nombre":"Villa Parque Santa Ana"},"municipio":{"id":"141410","nombre":"Villa Parque Santa Ana"},"nombre":"Mi Valle","provincia":{"id":"14","nombre":"Córdoba"}},{"categoria":"Entidad","centroide":{"lat":-31.5921586885257,"lon":-64.3524357073455},"departamento":{"id":"14147","nombre":"Santa María"},"id":"1414735002","localidad_censal":{"id":"14147350","nombre":"Villa Parque Santa Ana"},"municipio":{"id":"141410","nombre":"Villa Parque Santa Ana"},"nombre":"Villa Parque Santa Ana","provincia":{"id":"14","nombre":"Córdoba"}},{"categoria":"Localidad simple","centroide":{"lat":-33.0447614488897,"lon":-63.9060666446281},"departamento":{"id":"14056","nombre":"Juárez Celman"},"id":"14056120","localidad_censal":{"id":"14056120","nombre":"Olaeta"},"municipio":{"id":"140448","nombre":"Olaeta"},"nombre":"Olaeta","provincia":{"id":"14","nombre":"Córdoba"}},{"categoria":"Localidad simple","centroide":{"lat":-32.1745792840367,"lon":-64.5732436463006},"departamento":{"id":"14007","nombre":"Calamuchita"},"id":"14007010","localidad_censal":{"id":"14007010","nombre":"Amboy"},"municipio":{"id":"142007","nombre":"Amboy"},"nombre":"Amboy","provincia":{"id":"14","nombre":"Córdoba"}},{"categoria":"Localidad simple","centroide":{"lat":-32.2562251197951,"lon":-64.6077980473932},"departamento":{"id":"14007","nombre":"Calamuchita"},"id":"14007020","localidad_censal":{"id":"14007020","nombre":"Arroyo San Antonio"},"municipio":{"id":null,"nombre":null},"nombre":"Arroyo San Antonio","provincia":{"id":"14","nombre":"Córdoba"}},{"categoria":"Localidad simple","centroide":{"lat":-32.3679600870772,"lon":-64.6454261117656},"departamento":{"id":"14007","nombre":"Calamuchita"},"id":"14007030","localidad_censal":{"id":"14007030","nombre":"Cañada Del Sauce"},"municipio":{"id":"142021","nombre":"Cañada del Sauce"},"nombre":"Cañada del Sauce","provincia":{"id":"14","nombre":"Córdoba"}},{"categoria":"Localidad simple","centroide":{"lat":-32.1404343396904,"lon":-64.5034778547124},"departamento":{"id":"14007","nombre":"Calamuchita"},"id":"14007050","localidad_censal":{"id":"14007050","nombre":"El Corcovado - El Torreón"},"municipio":{"id":"140063","nombre":"Villa Rumipal"},"nombre":"El Corcovado - El Torreón","provincia":{"id":"14","nombre":"Córdoba"}},{"categoria":"Localidad simple","centroide":{"lat":-32.1698010305769,"lon":-64.7738851513169},"departamento":{"id":"14007","nombre":"Calamuchita"},"id":"14007055","localidad_censal":{"id":"14007055","nombre":"El Durazno"},"municipio":{"id":"140070","nombre":"Villa Yacanto"},"nombre":"El Durazno","provincia":{"id":"14","nombre":"Córdoba"}},{"categoria":"Localidad simple","centroide":{"lat":-32.206746994887,"lon":-64.4006426100595},"departamento":{"id":"14007","nombre":"Calamuchita"},"id":"14007060","localidad_censal":{"id":"14007060","nombre":"Embalse"},"municipio":{"id":"140007","nombre":"Embalse"},"nombre":"Embalse","provincia":{"id":"14","nombre":"Córdoba"}},{"categoria":"Localidad simple","centroide":{"lat":-32.3031135977611,"lon":-64.4830414426673},"departamento":{"id":"14007","nombre":"Calamuchita"},"id":"14007070","localidad_censal":{"id":"14007070","nombre":"La Cruz"},"municipio":{"id":"140014","nombre":"La Cruz"},"nombre":"La Cruz","provincia":{"id":"14","nombre":"Córdoba"}},{"categoria":"Localidad simple","centroide":{"lat":-31.8997878540948,"lon":-64.7731668387586},"departamento":{"id":"14007","nombre":"Calamuchita"},"id":"14007080","localidad_censal":{"id":"14007080","nombre":"La Cumbrecita"},"municipio":{"id":"143015","nombre":"La Cumbrecita"},"nombre":"La Cumbrecita","provincia":{"id":"14","nombre":"Córdoba"}},{"categoria":"Localidad simple","centroide":{"lat":-32.0961591386739,"lon":-64.3300742912544},"departamento":{"id":"14007","nombre":"Calamuchita"},"id":"14007090","localidad_censal":{"id":"14007090","nombre":"Las Bajadas"},"municipio":{"id":"142028","nombre":"Las Bajadas"},"nombre":"Las Bajadas","provincia":{"id":"14","nombre":"Córdoba"}},{"categoria":"Localidad simple","centroide":{"lat":-32.3888032444727,"lon":-64.5214358049346},"departamento":{"id":"14007","nombre":"Calamuchita"},"id":"14007100","localidad_censal":{"id":"14007100","nombre":"Las Caleras"},"municipio":{"id":"142035","nombre":"Las Caleras"},"nombre":"Las Caleras","provincia":{"id":"14","nombre":"Córdoba"}},{"categoria":"Localidad simple","centroide":{"lat":-32.3211259681076,"lon":-64.2807422857482},"departamento":{"id":"14007","nombre":"Calamuchita"},"id":"14007110","localidad_censal":{"id":"14007110","nombre":"Los Cóndores"},"municipio":{"id":"140021","nombre":"Los Cóndores"},"nombre":"Los Cóndores","provincia":{"id":"14","nombre":"Córdoba"}},{"categoria":"Localidad simple","centroide":{"lat":-31.8548624339289,"lon":-64.3789312032362},"departamento":{"id":"14007","nombre":"Calamuchita"},"id":"14007120","localidad_censal":{"id":"14007120","nombre":"Los Molinos"},"municipio":{"id":"142042","nombre":"Los Molinos"},"nombre":"Los Molinos","provincia":{"id":"14","nombre":"Córdoba"}},{"categoria":"Componente de localidad compuesta","centroide":{"lat":-31.9183078880064,"lon":-64.5758210013579},"departamento":{"id":"14007","nombre":"Calamuchita"},"id":"14007130","localidad_censal":{"id":"14007130","nombre":"Los Reartes"},"municipio":{"id":"142049","nombre":"Los Reartes"},"nombre":"Los Reartes","provincia":{"id":"14","nombre":"Córdoba"}},{"categoria":"Localidad simple","centroide":{"lat":-32.3184982729107,"lon":-64.7469859010605},"departamento":{"id":"14007","nombre":"Calamuchita"},"id":"14007140","localidad_censal":{"id":"14007140","nombre":"Lutti"},"municipio":{"id":"142056","nombre":"Lutti"},"nombre":"Lutti","provincia":{"id":"14","nombre":"Córdoba"}},{"categoria":"Localidad simple","centroide":{"lat":-32.0254698796365,"lon":-64.4646790665809},"departamento":{"id":"14007","nombre":"Calamuchita"},"id":"14007160","localidad_censal":{"id":"14007160","nombre":"Parque Calmayo"},"municipio":{"id":"142014","nombre":"Parque Calmayo"},"nombre":"Parque Calmayo","provincia":{"id":"14","nombre":"Córdoba"}},{"categoria":"Localidad simple","centroide":{"lat":-32.528642164266,"lon":-64.5886875602836},"departamento":{"id":"14007","nombre":"Calamuchita"},"id":"14007170","localidad_censal":{"id":"14007170","nombre":"Río De Los Sauces"},"municipio":{"id":"140028","nombre":"Río de los Sauces"},"nombre":"Río de los Sauces","provincia":{"id":"14","nombre":"Córdoba"}},{"categoria":"Localidad simple","centroide":{"lat":-31.9776223398196,"lon":-64.3755856819348},"departamento":{"id":"14007","nombre":"Calamuchita"},"id":"14007180","localidad_censal":{"id":"14007180","nombre":"San Agustin"},"municipio":{"id":"140056","nombre":"San Agustín"},"nombre":"San Agustín","provincia":{"id":"14","nombre":"Córdoba"}},{"categoria":"Localidad simple","centroide":{"lat":-32.1659052832809,"lon":-64.5179097272822},"departamento":{"id":"14007","nombre":"Calamuchita"},"id":"14007190","localidad_censal":{"id":"14007190","nombre":"San Ignacio (Loteo San Javier)"},"municipio":{"id":"142063","nombre":"San Ignacio"},"nombre":"San Ignacio (Loteo San Javier)","provincia":{"id":"14","nombre":"Córdoba"}},{"categoria":"Localidad simple","centroide":{"lat":-32.0643780082952,"lon":-64.5395619619795},"departamento":{"id":"14007","nombre":"Calamuchita"},"id":"14007210","localidad_censal":{"id":"14007210","nombre":"Santa Rosa de Calamuchita"},"municipio":{"id":"140035","nombre":"Santa Rosa de Calamuchita"},"nombre":"Santa Rosa de Calamuchita","provincia":{"id":"14","nombre":"Córdoba"}},{"categoria":"Localidad simple","centroide":{"lat":-32.165000699904,"lon":-64.3791841282962},"departamento":{"id":"14007","nombre":"Calamuchita"},"id":"14007220","localidad_censal":{"id":"14007220","nombre":"Segunda Usina"},"municipio":{"id":"142070","nombre":"Segunda Usina"},"nombre":"Segunda Usina","provincia":{"id":"14","nombre":"Córdoba"}},{"categoria":"Localidad simple","centroide":{"lat":-31.8282753564049,"lon":-64.5213024933877},"departamento":{"id":"14007","nombre":"Calamuchita"},"id":"14007230","localidad_censal":{"id":"14007230","nombre":"Solar de los Molinos"},"municipio":{"id":"142084","nombre":"Villa Ciudad Parque Los Reartes"},"nombre":"Solar de los Molinos","provincia":{"id":"14","nombre":"Córdoba"}},{"categoria":"Localidad simple","centroide":{"lat":-31.956360003836,"lon":-64.8134564861105},"departamento":{"id":"14007","nombre":"Calamuchita"},"id":"14007240","localidad_censal":{"id":"14007240","nombre":"Villa Alpina"},"municipio":{"id":null,"nombre":null},"nombre":"Villa Alpina","provincia":{"id":"14","nombre":"Córdoba"}},{"categoria":"Localidad simple","centroide":{"lat":-32.1861840457394,"lon":-64.5673892136594},"departamento":{"id":"14007","nombre":"Calamuchita"},"id":"14007250","localidad_censal":{"id":"14007250","nombre":"Villa Amancay"},"municipio":{"id":"142077","nombre":"Villa Amancay"},"nombre":"Villa Amancay","provincia":{"id":"14","nombre":"Córdoba"}},{"categoria":"Localidad simple","centroide":{"lat":-31.9110000435133,"lon":-64.7263436829673},"departamento":{"id":"14007","nombre":"Calamuchita"},"id":"14007260","localidad_censal":{"id":"14007260","nombre":"Villa Berna"},"municipio":{"id":null,"nombre":null},"nombre":"Villa Berna","provincia":{"id":"14","nombre":"Córdoba"}},{"categoria":"Componente de localidad compuesta","centroide":{"lat":-31.9120664434057,"lon":-64.5306135222014},"departamento":{"id":"14007","nombre":"Calamuchita"},"id":"14007270","localidad_censal":{"id":"14007270","nombre":"Villa Ciudad Parque Los Reartes"},"municipio":{"id":"142084","nombre":"Villa Ciudad Parque Los Reartes"},"nombre":"Villa Ciudad Parque Los Reartes","provincia":{"id":"14","nombre":"Córdoba"}},{"categoria":"Componente de localidad compuesta","centroide":{"lat":-32.1763512233751,"lon":-64.4569384953227},"departamento":{"id":"14007","nombre":"Calamuchita"},"id":"14007290","localidad_censal":{"id":"14007290","nombre":"Villa del Dique"},"municipio":{"id":"140042","nombre":"Villa del Dique"},"nombre":"Villa del Dique","provincia":{"id":"14","nombre":"Córdoba"}},{"categoria":"Localidad simple","centroide":{"lat":-32.2527149326427,"lon":-64.5841178583312},"departamento":{"id":"14007","nombre":"Calamuchita"},"id":"14007300","localidad_censal":{"id":"14007300","nombre":"Villa El Tala"},"municipio":{"id":null,"nombre":null},"nombre":"Villa El Tala","provincia":{"id":"14","nombre":"Córdoba"}},{"categoria":"Localidad simple","centroide":{"lat":-31.9764928137116,"lon":-64.5590536588416},"departamento":{"id":"14007","nombre":"Calamuchita"},"id":"14007310","localidad_censal":{"id":"14007310","nombre":"Villa General Belgrano"},"municipio":{"id":"140049","nombre":"Villa General Belgrano"},"nombre":"Villa General Belgrano","provincia":{"id":"14","nombre":"Córdoba"}},{"categoria":"Localidad simple","centroide":{"lat":-32.2666325052071,"lon":-64.5247153832449},"departamento":{"id":"14007","nombre":"Calamuchita"},"id":"14007320","localidad_censal":{"id":"14007320","nombre":"Villa La Ribera"},"municipio":{"id":"142091","nombre":"Villa Quillinzo"},"nombre":"Villa La Rivera","provincia":{"id":"14","nombre":"Córdoba"}},{"categoria":"Localidad simple","centroide":{"lat":-32.2365474320847,"lon":-64.5136041058573},"departamento":{"id":"14007","nombre":"Calamuchita"},"id":"14007330","localidad_censal":{"id":"14007330","nombre":"Villa Quillinzo"},"municipio":{"id":"142091","nombre":"Villa Quillinzo"},"nombre":"Villa Quillinzo","provincia":{"id":"14","nombre":"Córdoba"}},{"categoria":"Componente de localidad compuesta","centroide":{"lat":-32.1893832757006,"lon":-64.4792058830229},"departamento":{"id":"14007","nombre":"Calamuchita"},"id":"14007340","localidad_censal":{"id":"14007340","nombre":"Villa Rumipal"},"municipio":{"id":"140063","nombre":"Villa Rumipal"},"nombre":"Villa Rumipal","provincia":{"id":"14","nombre":"Córdoba"}},{"categoria":"Localidad simple","centroide":{"lat":-32.103594962197,"lon":-64.7545223469106},"departamento":{"id":"14007","nombre":"Calamuchita"},"id":"14007360","localidad_censal":{"id":"14007360","nombre":"Villa Yacanto"},"municipio":{"id":"140070","nombre":"Villa Yacanto"},"nombre":"Villa Yacanto","provincia":{"id":"14","nombre":"Córdoba"}},{"categoria":"Componente de localidad compuesta","centroide":{"lat":-31.416804474519,"lon":-64.1836065316143},"departamento":{"id":"14014","nombre":"Capital"},"id":"14014010","localidad_censal":{"id":"14014010","nombre":"Córdoba"},"municipio":{"id":"140077","nombre":"Córdoba"},"nombre":"Córdoba","provincia":{"id":"14","nombre":"Córdoba"}},{"categoria":"Componente de localidad compuesta","centroide":{"lat":-31.0622288550886,"lon":-64.3006405218046},"departamento":{"id":"14021","nombre":"Colón"},"id":"14021010","localidad_censal":{"id":"14021010","nombre":"Agua de Oro"},"municipio":{"id":"140084","nombre":"Agua de Oro"},"nombre":"Agua de Oro","provincia":{"id":"14","nombre":"Córdoba"}},{"categoria":"Localidad simple","centroide":{"lat":-30.9590358937464,"lon":-64.2733493995531},"departamento":{"id":"14021","nombre":"Colón"},"id":"14021020","localidad_censal":{"id":"14021020","nombre":"Ascochinga"},"municipio":{"id":"140126","nombre":"La Granja"},"nombre":"Ascochinga","provincia":{"id":"14","nombre":"Córdoba"}},{"categoria":"Componente de localidad compuesta","centroide":{"lat":-31.0220555873766,"lon":-64.0617128675296},"departamento":{"id":"14021","nombre":"Colón"},"id":"14021050","localidad_censal":{"id":"14021050","nombre":"Colonia Caroya"},"municipio":{"id":"140091","nombre":"Colonia Caroya"},"nombre":"Colonia Caroya","provincia":{"id":"14","nombre":"Córdoba"}},{"categoria":"Localidad simple","centroide":{"lat":-31.2372761869427,"lon":-64.06629578921},"departamento":{"id":"14021","nombre":"Colón"},"id":"14021060","localidad_censal":{"id":"14021060","nombre":"Colonia Tirolesa"},"municipio":{"id":"140098","nombre":"Colonia Tirolesa"},"nombre":"Colonia Tirolesa","provincia":{"id":"14","nombre":"Córdoba"}},{"categoria":"Localidad simple","centroide":{"lat":-31.028521686159,"lon":-64.0186827925075},"departamento":{"id":"14021","nombre":"Colón"},"id":"14021070","localidad_censal":{"id":"14021070","nombre":"Colonia Vicente Agüero"},"municipio":{"id":"142098","nombre":"Colonia Vicente Agüero"},"nombre":"Colonia Vicente Agüero","provincia":{"id":"14","nombre":"Córdoba"}},{"categoria":"Localidad simple","centroide":{"lat":-31.4439913534172,"lon":-63.9957647638948},"departamento":{"id":"14021","nombre":"Colón"},"id":"14021075","localidad_censal":{"id":"14021075","nombre":"Villa Corazon De María"},"municipio":{"id":"140133","nombre":"Malvinas Argentinas"},"nombre":"Villa Corazón de María","provincia":{"id":"14","nombre":"Córdoba"}},{"categoria":"Componente de localidad compuesta","centroide":{"lat":-31.0842308391148,"lon":-64.2986976601044},"departamento":{"id":"14021","nombre":"Colón"},"id":"14021110","localidad_censal":{"id":"14021110","nombre":"El Manzano"},"municipio":{"id":"142105","nombre":"El Manzano"},"nombre":"El Manzano","provincia":{"id":"14","nombre":"Córdoba"}},{"categoria":"Localidad simple","centroide":{"lat":-31.1344806428809,"lon":-64.1401506243983},"departamento":{"id":"14021","nombre":"Colón"},"id":"14021130","localidad_censal":{"id":"14021130","nombre":"General Paz"},"municipio":{"id":"140102","nombre":"Estación General Paz"},"nombre":"General Paz","provincia":{"id":"14","nombre":"Córdoba"}},{"categoria":"Componente de localidad compuesta","centroide":{"lat":-30.9761309355354,"lon":-64.0957931680719},"departamento":{"id":"14021","nombre":"Colón"},"id":"14021140","localidad_censal":{"id":"14021140","nombre":"Jesús María"},"municipio":{"id":"140112","nombre":"Jesús María"},"nombre":"Jesús María","provincia":{"id":"14","nombre":"Córdoba"}},{"categoria":"Componente de localidad compuesta","centroide":{"lat":-31.3457926167976,"lon":-64.3384873148702},"departamento":{"id":"14021","nombre":"Colón"},"id":"14021150","localidad_censal":{"id":"14021150","nombre":"La Calera"},"municipio":{"id":"140119","nombre":"La Calera"},"nombre":"La Calera","provincia":{"id":"14","nombre":"Córdoba"}},{"categoria":"Componente de localidad compuesta","centroide":{"lat":-31.0086241638688,"lon":-64.2678934275508},"departamento":{"id":"14021","nombre":"Colón"},"id":"14021160","localidad_censal":{"id":"14021160","nombre":"La Granja"},"municipio":{"id":"140126","nombre":"La Granja"},"nombre":"La Granja","provincia":{"id":"14","nombre":"Córdoba"}},{"categoria":"Localidad simple","centroide":{"lat":-31.1431642572558,"lon":-64.0412657421536},"departamento":{"id":"14021","nombre":"Colón"},"id":"14021170","localidad_censal":{"id":"14021170","nombre":"La Puerta"},"municipio":{"id":"140098","nombre":"Colonia Tirolesa"},"nombre":"La Puerta","provincia":{"id":"14","nombre":"Córdoba"}},{"categoria":"Localidad simple","centroide":{"lat":-31.3742535756696,"lon":-64.0536917332686},"departamento":{"id":"14021","nombre":"Colón"},"id":"14021190","localidad_censal":{"id":"14021190","nombre":"Malvinas Argentinas"},"municipio":{"id":"140133","nombre":"Malvinas Argentinas"},"nombre":"Malvinas Argentinas","provincia":{"id":"14","nombre":"Córdoba"}},{"categoria":"Componente de localidad compuesta","centroide":{"lat":-31.2640443703214,"lon":-64.3091277732629},"departamento":{"id":"14021","nombre":"Colón"},"id":"14021200","localidad_censal":{"id":"14021200","nombre":"Mendiolaza"},"municipio":{"id":"140140","nombre":"Mendiolaza"},"nombre":"Mendiolaza","provincia":{"id":"14","nombre":"Córdoba"}},{"categoria":"Localidad simple","centroide":{"lat":-31.3553500072871,"lon":-64.0031894181341},"departamento":{"id":"14021","nombre":"Colón"},"id":"14021210","localidad_censal":{"id":"14021210","nombre":"Mi Granja"},"municipio":{"id":"140143","nombre":"Mi Granja"},"nombre":"Mi Granja","provincia":{"id":"14","nombre":"Córdoba"}},{"categoria":"Componente de localidad compuesta","centroide":{"lat":-31.1697501304772,"lon":-64.3175041693725},"departamento":{"id":"14021","nombre":"Colón"},"id":"14021230","localidad_censal":{"id":"14021230","nombre":"Río Ceballos"},"municipio":{"id":"140147","nombre":"Río Ceballos"},"nombre":"Río Ceballos","provincia":{"id":"14","nombre":"Córdoba"}},{"categoria":"Componente de localidad compuesta","centroide":{"lat":-31.3153062144915,"lon":-64.3035286821267},"departamento":{"id":"14021","nombre":"Colón"},"id":"14021240","localidad_censal":{"id":"14021240","nombre":"Saldán"},"municipio":{"id":"140154","nombre":"Saldán"},"nombre":"Saldán","provincia":{"id":"14","nombre":"Córdoba"}},{"categoria":"Componente de localidad compuesta","centroide":{"lat":-31.1423535972901,"lon":-64.2974184744782},"departamento":{"id":"14021","nombre":"Colón"},"id":"14021250","localidad_censal":{"id":"14021250","nombre":"Salsipuedes"},"municipio":{"id":"140161","nombre":"Salsipuedes"},"nombre":"Salsipuedes","provincia":{"id":"14","nombre":"Córdoba"}},{"categoria":"Localidad simple","centroide":{"lat":-31.1245074978079,"lon":-63.8917952670958},"departamento":{"id":"14021","nombre":"Colón"},"id":"14021270","localidad_censal":{"id":"14021270","nombre":"Tinoco"},"municipio":{"id":"142728","nombre":"Tinoco"},"nombre":"Tinoco","provincia":{"id":"14","nombre":"Córdoba"}},{"categoria":"Componente de localidad compuesta","centroide":{"lat":-31.2371523751516,"lon":-64.3117636936437},"departamento":{"id":"14021","nombre":"Colón"},"id":"14021280","localidad_censal":{"id":"14021280","nombre":"Unquillo"},"municipio":{"id":"140168","nombre":"Unquillo"},"nombre":"Unquillo","provincia":{"id":"14","nombre":"Córdoba"}},{"categoria":"Componente de localidad compuesta","centroide":{"lat":-31.2936496256546,"lon":-64.2977013083088},"departamento":{"id":"14021","nombre":"Colón"},"id":"14021290","localidad_censal":{"id":"14021290","nombre":"Villa Allende"},"municipio":{"id":"140175","nombre":"Villa Allende"},"nombre":"Villa Allende","provincia":{"id":"14","nombre":"Córdoba"}},{"categoria":"Localidad simple","centroide":{"lat":-31.0706651818848,"lon":-64.3162353926988},"departamento":{"id":"14021","nombre":"Colón"},"id":"14021300","localidad_censal":{"id":"14021300","nombre":"Villa Cerro Azul"},"municipio":{"id":"142126","nombre":"Villa Cerro Azul"},"nombre":"Villa Cerro Azul","provincia":{"id":"14","nombre":"Córdoba"}},{"categoria":"Componente de localidad compuesta","centroide":{"lat":-31.3124146261742,"lon":-64.1761908673028},"departamento":{"id":"14021","nombre":"Colón"},"id":"14021310","localidad_censal":{"id":"14021310","nombre":"Parque Norte - Guinazu Norte"},"municipio":{"id":"140077","nombre":"Córdoba"},"nombre":"Parque Norte - Ciudad de los Niños - Guiñazú Norte","provincia":{"id":"14","nombre":"Córdoba"}},{"categoria":"Localidad simple","centroide":{"lat":-31.2757298270107,"lon":-64.1646157997346},"departamento":{"id":"14021","nombre":"Colón"},"id":"14021320","localidad_censal":{"id":"14021320","nombre":"Villa Los Llanos - Juárez Celman"},"municipio":{"id":"140105","nombre":"Estación Juárez Celman"},"nombre":"Villa Los Llanos - Juárez Celman","provincia":{"id":"14","nombre":"Córdoba"}},{"categoria":"Localidad simple","centroide":{"lat":-30.5432844931547,"lon":-65.036726705634},"departamento":{"id":"14028","nombre":"Cruz del Eje"},"id":"14028010","localidad_censal":{"id":"14028010","nombre":"Alto de los Quebrachos"},"municipio":{"id":"142133","nombre":"Alto de los Quebrachos"},"nombre":"Alto de los Quebrachos","provincia":{"id":"14","nombre":"Córdoba"}},{"categoria":"Localidad simple","centroide":{"lat":-30.7951306902471,"lon":-65.0526414509469},"departamento":{"id":"14028","nombre":"Cruz del Eje"},"id":"14028020","localidad_censal":{"id":"14028020","nombre":"Bañado de Soto"},"municipio":{"id":"142140","nombre":"Bañado de Soto"},"nombre":"Bañado de Soto","provincia":{"id":"14","nombre":"Córdoba"}},{"categoria":"Localidad simple","centroide":{"lat":-31.0678362171856,"lon":-64.9347870163643},"departamento":{"id":"14028","nombre":"Cruz del Eje"},"id":"14028040","localidad_censal":{"id":"14028040","nombre":"Cruz de Cana"},"municipio":{"id":"142147","nombre":"Cruz de Caña"},"nombre":"Cruz de Caña","provincia":{"id":"14","nombre":"Córdoba"}},{"categoria":"Localidad simple","centroide":{"lat":-30.7439287854916,"lon":-64.7907762625898},"departamento":{"id":"14028","nombre":"Cruz del Eje"},"id":"14028050","localidad_censal":{"id":"14028050","nombre":"Cruz del Eje"},"municipio":{"id":"140182","nombre":"Cruz del Eje"},"nombre":"Cruz del Eje","provincia":{"id":"14","nombre":"Córdoba"}},{"categoria":"Localidad simple","centroide":{"lat":-30.6726348056743,"lon":-64.8718984580637},"departamento":{"id":"14028","nombre":"Cruz del Eje"},"id":"14028060","localidad_censal":{"id":"14028060","nombre":"El Brete"},"municipio":{"id":"140185","nombre":"El Brete"},"nombre":"El Brete","provincia":{"id":"14","nombre":"Córdoba"}},{"categoria":"Localidad simple","centroide":{"lat":-30.4786437166254,"lon":-65.0615999465835},"departamento":{"id":"14028","nombre":"Cruz del Eje"},"id":"14028080","localidad_censal":{"id":"14028080","nombre":"Guanaco Muerto"},"municipio":{"id":"142161","nombre":"Guanaco Muerto"},"nombre":"Guanaco Muerto","provincia":{"id":"14","nombre":"Córdoba"}},{"categoria":"Localidad simple","centroide":{"lat":-30.3722741905701,"lon":-65.3081506835707},"departamento":{"id":"14028","nombre":"Cruz del Eje"},"id":"14028100","localidad_censal":{"id":"14028100","nombre":"La Batea"},"municipio":{"id":"142168","nombre":"La Batea"},"nombre":"La Batea","provincia":{"id":"14","nombre":"Córdoba"}},{"categoria":"Localidad simple","centroide":{"lat":-31.0132902934693,"lon":-65.1028961989253},"departamento":{"id":"14028","nombre":"Cruz del Eje"},"id":"14028110","localidad_censal":{"id":"14028110","nombre":"La Higuera"},"municipio":{"id":"142175","nombre":"La Higuera"},"nombre":"La Higuera","provincia":{"id":"14","nombre":"Córdoba"}},{"categoria":"Localidad simple","centroide":{"lat":-30.9149930562395,"lon":-64.7347253605041},"departamento":{"id":"14028","nombre":"Cruz del Eje"},"id":"14028120","localidad_censal":{"id":"14028120","nombre":"Las Cañadas"},"municipio":{"id":"142182","nombre":"Las Cañadas"},"nombre":"Las Cañadas","provincia":{"id":"14","nombre":"Córdoba"}},{"categoria":"Localidad simple","centroide":{"lat":-30.7067406068792,"lon":-64.8472958527643},"departamento":{"id":"14028","nombre":"Cruz del Eje"},"id":"14028130","localidad_censal":{"id":"14028130","nombre":"Las Playas"},"municipio":{"id":"142189","nombre":"Las Playas"},"nombre":"Las Playas","provincia":{"id":"14","nombre":"Córdoba"}},{"categoria":"Localidad simple","centroide":{"lat":-30.557676818886,"lon":-64.9537465755734},"departamento":{"id":"14028","nombre":"Cruz del Eje"},"id":"14028140","localidad_censal":{"id":"14028140","nombre":"Los Chañaritos"},"municipio":{"id":"142196","nombre":"Los Chañaritos"},"nombre":"Los Chañaritos","provincia":{"id":"14","nombre":"Córdoba"}},{"categoria":"Localidad simple","centroide":{"lat":-30.6440766851484,"lon":-64.9282561270634},"departamento":{"id":"14028","nombre":"Cruz del Eje"},"id":"14028150","localidad_censal":{"id":"14028150","nombre":"Media Naranja"},"municipio":{"id":"142203","nombre":"Media Naranja"},"nombre":"Media Naranja","provincia":{"id":"14","nombre":"Córdoba"}},{"categoria":"Localidad simple","centroide":{"lat":-30.767438455012,"lon":-65.1904310993209},"departamento":{"id":"14028","nombre":"Cruz del Eje"},"id":"14028160","localidad_censal":{"id":"14028160","nombre":"Paso Viejo"},"municipio":{"id":"142210","nombre":"Paso Viejo"},"nombre":"Paso Viejo","provincia":{"id":"14","nombre":"Córdoba"}},{"categoria":"Localidad simple","centroide":{"lat":-30.7830128979704,"lon":-64.6361895651717},"departamento":{"id":"14028","nombre":"Cruz del Eje"},"id":"14028170","localidad_censal":{"id":"14028170","nombre":"San Marcos Sierra"},"municipio":{"id":"140189","nombre":"San Marcos Sierra"},"nombre":"San Marcos Sierra","provincia":{"id":"14","nombre":"Córdoba"}},{"categoria":"Localidad simple","centroide":{"lat":-30.6387724146337,"lon":-65.3887411301193},"departamento":{"id":"14028","nombre":"Cruz del Eje"},"id":"14028180","localidad_censal":{"id":"14028180","nombre":"Serrezuela"},"municipio":{"id":"140196","nombre":"Serrezuela"},"nombre":"Serrezuela","provincia":{"id":"14","nombre":"Córdoba"}},{"categoria":"Localidad simple","centroide":{"lat":-30.7465914481217,"lon":-65.23562125983},"departamento":{"id":"14028","nombre":"Cruz del Eje"},"id":"14028190","localidad_censal":{"id":"14028190","nombre":"Tuclame"},"municipio":{"id":"142217","nombre":"Tuclame"},"nombre":"Tuclame","provincia":{"id":"14","nombre":"Córdoba"}},{"categoria":"Localidad simple","centroide":{"lat":-30.8552312644894,"lon":-64.9848914395855},"departamento":{"id":"14028","nombre":"Cruz del Eje"},"id":"14028200","localidad_censal":{"id":"14028200","nombre":"Villa de Soto"},"municipio":{"id":"140203","nombre":"Villa de Soto"},"nombre":"Villa de Soto","provincia":{"id":"14","nombre":"Córdoba"}},{"categoria":"Localidad simple","centroide":{"lat":-34.3788549787042,"lon":-64.4971277806815},"departamento":{"id":"14035","nombre":"General Roca"},"id":"14035010","localidad_censal":{"id":"14035010","nombre":"Del Campillo"},"municipio":{"id":"140217","nombre":"Del Campillo"},"nombre":"Del Campillo","provincia":{"id":"14","nombre":"Córdoba"}},{"categoria":"Localidad simple","centroide":{"lat":-34.4960896298253,"lon":-64.8106844722385},"departamento":{"id":"14035","nombre":"General Roca"},"id":"14035020","localidad_censal":{"id":"14035020","nombre":"Estación Lecueder"},"municipio":{"id":null,"nombre":null},"nombre":"Estación Lecueder","provincia":{"id":"14","nombre":"Córdoba"}},{"categoria":"Localidad simple","centroide":{"lat":-34.7238744309592,"lon":-63.5072646744416},"departamento":{"id":"14035","nombre":"General Roca"},"id":"14035030","localidad_censal":{"id":"14035030","nombre":"Buchardo"},"municipio":{"id":"140210","nombre":"Buchardo"},"nombre":"Hipólito Bouchard","provincia":{"id":"14","nombre":"Córdoba"}},{"categoria":"Localidad simple","centroide":{"lat":-34.8413182092657,"lon":-64.374674241684},"departamento":{"id":"14035","nombre":"General Roca"},"id":"14035040","localidad_censal":{"id":"14035040","nombre":"Huinca Renancó"},"municipio":{"id":"140224","nombre":"Huinca Renancó"},"nombre":"Huinca Renancó","provincia":{"id":"14","nombre":"Córdoba"}},{"categoria":"Localidad simple","centroide":{"lat":-34.7908061221694,"lon":-63.7803573874566},"departamento":{"id":"14035","nombre":"General Roca"},"id":"14035050","localidad_censal":{"id":"14035050","nombre":"Italó"},"municipio":{"id":"140231","nombre":"Italó"},"nombre":"Italó","provincia":{"id":"14","nombre":"Córdoba"}},{"categoria":"Localidad simple","centroide":{"lat":-34.4812565933205,"lon":-64.1706963757217},"departamento":{"id":"14035","nombre":"General Roca"},"id":"14035060","localidad_censal":{"id":"14035060","nombre":"Mattaldi"},"municipio":{"id":"140245","nombre":"Mattaldi"},"nombre":"Mattaldi","provincia":{"id":"14","nombre":"Córdoba"}},{"categoria":"Localidad simple","centroide":{"lat":-34.4404202357062,"lon":-64.3416413140051},"departamento":{"id":"14035","nombre":"General Roca"},"id":"14035070","localidad_censal":{"id":"14035070","nombre":"Nicolás Bruzzone"},"municipio":{"id":"142224","nombre":"Nicolás Bruzzone"},"nombre":"Nicolás Bruzzone","provincia":{"id":"14","nombre":"Córdoba"}},{"categoria":"Localidad simple","centroide":{"lat":-34.7726306535037,"lon":-63.6721545267546},"departamento":{"id":"14035","nombre":"General Roca"},"id":"14035080","localidad_censal":{"id":"14035080","nombre":"Onagoity"},"municipio":{"id":"142231","nombre":"Onagoity"},"nombre":"Onagoity","provincia":{"id":"14","nombre":"Córdoba"}},{"categoria":"Localidad simple","centroide":{"lat":-34.838183614786,"lon":-63.9165630450065},"departamento":{"id":"14035","nombre":"General Roca"},"id":"14035090","localidad_censal":{"id":"14035090","nombre":"Pincén"},"municipio":{"id":"142238","nombre":"Pincén"},"nombre":"Pincén","provincia":{"id":"14","nombre":"Córdoba"}},{"categoria":"Localidad simple","centroide":{"lat":-34.8426586423884,"lon":-64.100317162126},"departamento":{"id":"14035","nombre":"General Roca"},"id":"14035100","localidad_censal":{"id":"14035100","nombre":"Ranqueles"},"municipio":{"id":"142245","nombre":"Ranqueles"},"nombre":"Ranqueles","provincia":{"id":"14","nombre":"Córdoba"}},{"categoria":"Localidad simple","centroide":{"lat":-34.5188146178844,"lon":-63.9440394716914},"departamento":{"id":"14035","nombre":"General Roca"},"id":"14035110","localidad_censal":{"id":"14035110","nombre":"Jovita"},"municipio":{"id":"140238","nombre":"Jovita"},"nombre":"Santa Magdalena","provincia":{"id":"14","nombre":"Córdoba"}},{"categoria":"Localidad simple","centroide":{"lat":-34.8405206144244,"lon":-64.5871000246117},"departamento":{"id":"14035","nombre":"General Roca"},"id":"14035120","localidad_censal":{"id":"14035120","nombre":"Villa Huidobro"},"municipio":{"id":"140252","nombre":"Villa Huidobro"},"nombre":"Villa Huidobro","provincia":{"id":"14","nombre":"Córdoba"}},{"categoria":"Localidad simple","centroide":{"lat":-34.1228538364414,"lon":-64.7251793561373},"departamento":{"id":"14035","nombre":"General Roca"},"id":"14035130","localidad_censal":{"id":"14035130","nombre":"Villa Sarmiento"},"municipio":{"id":"142252","nombre":"Villa Sarmiento"},"nombre":"Villa Sarmiento","provincia":{"id":"14","nombre":"Córdoba"}},{"categoria":"Localidad simple","centroide":{"lat":-34.3414458163452,"lon":-64.9208144024683},"departamento":{"id":"14035","nombre":"General Roca"},"id":"14035140","localidad_censal":{"id":"14035140","nombre":"Villa Valeria"},"municipio":{"id":"140259","nombre":"Villa Valeria"},"nombre":"Villa Valeria","provincia":{"id":"14","nombre":"Córdoba"}},{"categoria":"Localidad simple","centroide":{"lat":-32.2011870055989,"lon":-63.1651247599125},"departamento":{"id":"14042","nombre":"General San Martín"},"id":"14042010","localidad_censal":{"id":"14042010","nombre":"Arroyo Algodon"},"municipio":{"id":"140266","nombre":"Arroyo Algodón"},"nombre":"Arroyo Algodón","provincia":{"id":"14","nombre":"Córdoba"}},{"categoria":"Localidad simple","centroide":{"lat":-32.489493401271,"lon":-63.4023757740179},"departamento":{"id":"14042","nombre":"General San Martín"},"id":"14042020","localidad_censal":{"id":"14042020","nombre":"Arroyo Cabral"},"municipio":{"id":"140273","nombre":"Arroyo Cabral"},"nombre":"Arroyo Cabral","provincia":{"id":"14","nombre":"Córdoba"}},{"categoria":"Localidad simple","centroide":{"lat":-32.6617950020705,"lon":-63.2431129540741},"departamento":{"id":"14042","nombre":"General San Martín"},"id":"14042030","localidad_censal":{"id":"14042030","nombre":"Ausonia"},"municipio":{"id":"140280","nombre":"Ausonia"},"nombre":"Ausonia","provincia":{"id":"14","nombre":"Córdoba"}},{"categoria":"Localidad simple","centroide":{"lat":-33.0778686830531,"lon":-63.2750688076142},"departamento":{"id":"14042","nombre":"General San Martín"},"id":"14042040","localidad_censal":{"id":"14042040","nombre":"Chazón"},"municipio":{"id":"140287","nombre":"Chazón"},"nombre":"Chazón","provincia":{"id":"14","nombre":"Córdoba"}},{"categoria":"Localidad simple","centroide":{"lat":-32.9392316160202,"lon":-63.2450080292635},"departamento":{"id":"14042","nombre":"General San Martín"},"id":"14042050","localidad_censal":{"id":"14042050","nombre":"Etruria"},"municipio":{"id":"140294","nombre":"Etruria"},"nombre":"Etruria","provincia":{"id":"14","nombre":"Córdoba"}},{"categoria":"Localidad simple","centroide":{"lat":-32.8025264638807,"lon":-63.2470933409626},"departamento":{"id":"14042","nombre":"General San Martín"},"id":"14042060","localidad_censal":{"id":"14042060","nombre":"La Laguna"},"municipio":{"id":"140301","nombre":"La Laguna"},"nombre":"La Laguna","provincia":{"id":"14","nombre":"Córdoba"}},{"categoria":"Localidad simple","centroide":{"lat":-32.6164345716079,"lon":-63.4093992321595},"departamento":{"id":"14042","nombre":"General San Martín"},"id":"14042070","localidad_censal":{"id":"14042070","nombre":"La Palestina"},"municipio":{"id":"140308","nombre":"La Palestina"},"nombre":"La Palestina","provincia":{"id":"14","nombre":"Córdoba"}},{"categoria":"Localidad simple","centroide":{"lat":-32.097001584398,"lon":-63.0343508725098},"departamento":{"id":"14042","nombre":"General San Martín"},"id":"14042080","localidad_censal":{"id":"14042080","nombre":"La Playosa"},"municipio":{"id":"140315","nombre":"La Playosa"},"nombre":"La Playosa","provincia":{"id":"14","nombre":"Córdoba"}},{"categoria":"Localidad simple","centroide":{"lat":-32.3043333011971,"lon":-63.2334364556727},"departamento":{"id":"14042","nombre":"General San Martín"},"id":"14042090","localidad_censal":{"id":"14042090","nombre":"Las Mojarras"},"municipio":{"id":null,"nombre":null},"nombre":"Las Mojarras","provincia":{"id":"14","nombre":"Córdoba"}},{"categoria":"Localidad simple","centroide":{"lat":-32.5405056698749,"lon":-63.4768932211512},"departamento":{"id":"14042","nombre":"General San Martín"},"id":"14042100","localidad_censal":{"id":"14042100","nombre":"Luca"},"municipio":{"id":"140322","nombre":"Luca"},"nombre":"Luca","provincia":{"id":"14","nombre":"Córdoba"}},{"categoria":"Localidad simple","centroide":{"lat":-32.7462180353295,"lon":-63.3417357565638},"departamento":{"id":"14042","nombre":"General San Martín"},"id":"14042110","localidad_censal":{"id":"14042110","nombre":"Pasco"},"municipio":{"id":"140329","nombre":"Pasco"},"nombre":"Pasco","provincia":{"id":"14","nombre":"Córdoba"}},{"categoria":"Localidad simple","centroide":{"lat":-32.5282930275938,"lon":-63.2480163099916},"departamento":{"id":"14042","nombre":"General San Martín"},"id":"14042120","localidad_censal":{"id":"14042120","nombre":"Sanabria"},"municipio":{"id":"140280","nombre":"Ausonia"},"nombre":"Sanabria","provincia":{"id":"14","nombre":"Córdoba"}},{"categoria":"Localidad simple","centroide":{"lat":-32.2496252958172,"lon":-62.9308811599002},"departamento":{"id":"14042","nombre":"General San Martín"},"id":"14042130","localidad_censal":{"id":"14042130","nombre":"Silvio Pellico"},"municipio":{"id":"140336","nombre":"Silvio Pellico"},"nombre":"Silvio Pellico","provincia":{"id":"14","nombre":"Córdoba"}},{"categoria":"Localidad simple","centroide":{"lat":-32.693126806761,"lon":-63.4371065246176},"departamento":{"id":"14042","nombre":"General San Martín"},"id":"14042140","localidad_censal":{"id":"14042140","nombre":"Ticino"},"municipio":{"id":"140343","nombre":"Ticino"},"nombre":"Ticino","provincia":{"id":"14","nombre":"Córdoba"}},{"categoria":"Localidad simple","centroide":{"lat":-32.2870733284187,"lon":-63.3536812962105},"departamento":{"id":"14042","nombre":"General San Martín"},"id":"14042150","localidad_censal":{"id":"14042150","nombre":"Tí­o Pujio"},"municipio":{"id":"140350","nombre":"Tío Pujio"},"nombre":"Tío Pujio","provincia":{"id":"14","nombre":"Córdoba"}},{"categoria":"Componente de localidad compuesta","centroide":{"lat":-32.4135041930881,"lon":-63.248329032642},"departamento":{"id":"14042","nombre":"General San Martín"},"id":"14042170","localidad_censal":{"id":"14042170","nombre":"Villa María"},"municipio":{"id":"140357","nombre":"Villa María"},"nombre":"Villa María","provincia":{"id":"14","nombre":"Córdoba"}},{"categoria":"Componente de localidad compuesta","centroide":{"lat":-32.4354764129042,"lon":-63.2478575788202},"departamento":{"id":"14042","nombre":"General San Martín"},"id":"14042180","localidad_censal":{"id":"14042180","nombre":"Villa Nueva"},"municipio":{"id":"140364","nombre":"Villa Nueva"},"nombre":"Villa Nueva","provincia":{"id":"14","nombre":"Córdoba"}},{"categoria":"Localidad simple","centroide":{"lat":-32.4169424085691,"lon":-63.2834583533615},"departamento":{"id":"14042","nombre":"General San Martín"},"id":"14042190","localidad_censal":{"id":"14042190","nombre":"Villa Oeste"},"municipio":{"id":"140364","nombre":"Villa Nueva"},"nombre":"Villa Oeste","provincia":{"id":"14","nombre":"Córdoba"}},{"categoria":"Localidad simple","centroide":{"lat":-30.5942904368422,"lon":-64.2056869543903},"departamento":{"id":"14049","nombre":"Ischilín"},"id":"14049010","localidad_censal":{"id":"14049010","nombre":"Avellaneda"},"municipio":{"id":"142259","nombre":"Avellaneda"},"nombre":"Avellaneda","provincia":{"id":"14","nombre":"Córdoba"}},{"categoria":"Localidad simple","centroide":{"lat":-30.7757911856885,"lon":-64.218650967602},"departamento":{"id":"14049","nombre":"Ischilín"},"id":"14049020","localidad_censal":{"id":"14049020","nombre":"Cañada de Rio Pinto"},"municipio":{"id":"142266","nombre":"Cañada de Río Pinto"},"nombre":"Cañada de Río Pinto","provincia":{"id":"14","nombre":"Córdoba"}},{"categoria":"Localidad simple","centroide":{"lat":-30.4670741739895,"lon":-64.6702311731976},"departamento":{"id":"14049","nombre":"Ischilín"},"id":"14049030","localidad_censal":{"id":"14049030","nombre":"Chuña"},"municipio":{"id":"142273","nombre":"Chuña"},"nombre":"Chuña","provincia":{"id":"14","nombre":"Córdoba"}},{"categoria":"Localidad simple","centroide":{"lat":-30.6429020291104,"lon":-64.4995043048417},"departamento":{"id":"14049","nombre":"Ischilín"},"id":"14049040","localidad_censal":{"id":"14049040","nombre":"Copacabana"},"municipio":{"id":"142280","nombre":"Copacabana"},"nombre":"Copacabana","provincia":{"id":"14","nombre":"Córdoba"}},{"categoria":"Localidad simple","centroide":{"lat":-30.4249771769302,"lon":-64.35273931174},"departamento":{"id":"14049","nombre":"Ischilín"},"id":"14049050","localidad_censal":{"id":"14049050","nombre":"Deán Funes"},"municipio":{"id":"140371","nombre":"Deán Funes"},"nombre":"Deán Funes","provincia":{"id":"14","nombre":"Córdoba"}},{"categoria":"Localidad simple","centroide":{"lat":-30.5191804150051,"lon":-64.2522892562555},"departamento":{"id":"14049","nombre":"Ischilín"},"id":"14049080","localidad_censal":{"id":"14049080","nombre":"Los Pozos"},"municipio":{"id":"142287","nombre":"Los Pozos"},"nombre":"Los Pozos","provincia":{"id":"14","nombre":"Córdoba"}},{"categoria":"Localidad simple","centroide":{"lat":-30.6012264239052,"lon":-64.8556055205058},"departamento":{"id":"14049","nombre":"Ischilín"},"id":"14049090","localidad_censal":{"id":"14049090","nombre":"Olivares de San Nicolás"},"municipio":{"id":"142294","nombre":"Olivares de San Nicolás"},"nombre":"Olivares de San Nicolás","provincia":{"id":"14","nombre":"Córdoba"}},{"categoria":"Localidad simple","centroide":{"lat":-30.2141741753478,"lon":-64.4993682465442},"departamento":{"id":"14049","nombre":"Ischilín"},"id":"14049100","localidad_censal":{"id":"14049100","nombre":"Quilino"},"municipio":{"id":"140378","nombre":"Quilino"},"nombre":"Quilino","provincia":{"id":"14","nombre":"Córdoba"}},{"categoria":"Localidad simple","centroide":{"lat":-30.4542122342579,"lon":-64.4448949849585},"departamento":{"id":"14049","nombre":"Ischilín"},"id":"14049110","localidad_censal":{"id":"14049110","nombre":"San Pedro de Toyos"},"municipio":{"id":null,"nombre":null},"nombre":"San Pedro de Toyos","provincia":{"id":"14","nombre":"Córdoba"}},{"categoria":"Localidad simple","centroide":{"lat":-30.6792055355653,"lon":-64.1601540603629},"departamento":{"id":"14049","nombre":"Ischilín"},"id":"14049120","localidad_censal":{"id":"14049120","nombre":"Villa Gutiérrez"},"municipio":{"id":"142301","nombre":"Villa Gutiérrez"},"nombre":"Villa Gutiérrez","provincia":{"id":"14","nombre":"Córdoba"}},{"categoria":"Localidad simple","centroide":{"lat":-33.3535611422207,"lon":-63.7177345908776},"departamento":{"id":"14056","nombre":"Juárez Celman"},"id":"14056010","localidad_censal":{"id":"14056010","nombre":"Alejandro Roca"},"municipio":{"id":"140385","nombre":"Alejandro Roca"},"nombre":"Alejandro Roca","provincia":{"id":"14","nombre":"Córdoba"}},{"categoria":"Localidad simple","centroide":{"lat":-33.6341653860737,"lon":-63.2256220940937},"departamento":{"id":"14056","nombre":"Juárez Celman"},"id":"14056020","localidad_censal":{"id":"14056020","nombre":"Assunta"},"municipio":{"id":"142308","nombre":"Assunta"},"nombre":"Assunta","provincia":{"id":"14","nombre":"Córdoba"}},{"categoria":"Localidad simple","centroide":{"lat":-33.0247715016078,"lon":-63.6698958046962},"departamento":{"id":"14056","nombre":"Juárez Celman"},"id":"14056030","localidad_censal":{"id":"14056030","nombre":"Bengolea"},"municipio":{"id":"140392","nombre":"Bengolea"},"nombre":"Bengolea","provincia":{"id":"14","nombre":"Córdoba"}},{"categoria":"Localidad simple","centroide":{"lat":-32.9131482495273,"lon":-64.0225799574983},"departamento":{"id":"14056","nombre":"Juárez Celman"},"id":"14056040","localidad_censal":{"id":"14056040","nombre":"Carnerillo"},"municipio":{"id":"140399","nombre":"Carnerillo"},"nombre":"Carnerillo","provincia":{"id":"14","nombre":"Córdoba"}},{"categoria":"Localidad simple","centroide":{"lat":-33.025379107614,"lon":-64.0468745495955},"departamento":{"id":"14056","nombre":"Juárez Celman"},"id":"14056050","localidad_censal":{"id":"14056050","nombre":"Charras"},"municipio":{"id":"140406","nombre":"Charras"},"nombre":"Charras","provincia":{"id":"14","nombre":"Córdoba"}},{"categoria":"Localidad simple","centroide":{"lat":-33.6661834475089,"lon":-63.5393329155376},"departamento":{"id":"14056","nombre":"Juárez Celman"},"id":"14056060","localidad_censal":{"id":"14056060","nombre":"El Rastreador"},"municipio":{"id":"142315","nombre":"El Rastreador"},"nombre":"El Rastreador","provincia":{"id":"14","nombre":"Córdoba"}},{"categoria":"Localidad simple","centroide":{"lat":-32.8145729537056,"lon":-63.8749572232084},"departamento":{"id":"14056","nombre":"Juárez Celman"},"id":"14056070","localidad_censal":{"id":"14056070","nombre":"General Cabrera"},"municipio":{"id":"140413","nombre":"General Cabrera"},"nombre":"General Cabrera","provincia":{"id":"14","nombre":"Córdoba"}},{"categoria":"Localidad simple","centroide":{"lat":-32.7563272558798,"lon":-63.7891325487676},"departamento":{"id":"14056","nombre":"Juárez Celman"},"id":"14056080","localidad_censal":{"id":"14056080","nombre":"General Deheza"},"municipio":{"id":"140420","nombre":"General Deheza"},"nombre":"General Deheza","provincia":{"id":"14","nombre":"Córdoba"}},{"categoria":"Localidad simple","centroide":{"lat":-33.6684902972492,"lon":-63.6362592216111},"departamento":{"id":"14056","nombre":"Juárez Celman"},"id":"14056090","localidad_censal":{"id":"14056090","nombre":"Huanchilla"},"municipio":{"id":"140427","nombre":"Huanchilla"},"nombre":"Huanchillas","provincia":{"id":"14","nombre":"Córdoba"}},{"categoria":"Localidad simple","centroide":{"lat":-33.4179776759532,"lon":-63.2936289409448},"departamento":{"id":"14056","nombre":"Juárez Celman"},"id":"14056100","localidad_censal":{"id":"14056100","nombre":"La Carlota"},"municipio":{"id":"140434","nombre":"La Carlota"},"nombre":"La Carlota","provincia":{"id":"14","nombre":"Córdoba"}},{"categoria":"Localidad simple","centroide":{"lat":-33.4003583812229,"lon":-63.4723888936644},"departamento":{"id":"14056","nombre":"Juárez Celman"},"id":"14056110","localidad_censal":{"id":"14056110","nombre":"Los Cisnes"},"municipio":{"id":"140441","nombre":"Los Cisnes"},"nombre":"Los Cisnes","provincia":{"id":"14","nombre":"Córdoba"}},{"categoria":"Localidad simple","centroide":{"lat":-33.7584460192307,"lon":-63.4903023260087},"departamento":{"id":"14056","nombre":"Juárez Celman"},"id":"14056130","localidad_censal":{"id":"14056130","nombre":"Pacheco de Melo"},"municipio":{"id":"142322","nombre":"Pacheco de Melo"},"nombre":"Pacheco de Melo","provincia":{"id":"14","nombre":"Córdoba"}},{"categoria":"Componente de localidad compuesta","centroide":{"lat":-33.1707368569602,"lon":-64.0477630393348},"departamento":{"id":"14056","nombre":"Juárez Celman"},"id":"14056140","localidad_censal":{"id":"14056140","nombre":"Paso del Durazno"},"municipio":{"id":"142329","nombre":"Paso del Durazno"},"nombre":"Paso del Durazno","provincia":{"id":"14","nombre":"Córdoba"}},{"categoria":"Localidad simple","centroide":{"lat":-33.1764791369835,"lon":-63.286607639172},"departamento":{"id":"14056","nombre":"Juárez Celman"},"id":"14056150","localidad_censal":{"id":"14056150","nombre":"Santa Eufemia"},"municipio":{"id":"140462","nombre":"Santa Eufemia"},"nombre":"Santa Eufemia","provincia":{"id":"14","nombre":"Córdoba"}},{"categoria":"Localidad simple","centroide":{"lat":-33.0314400484848,"lon":-63.5061198919908},"departamento":{"id":"14056","nombre":"Juárez Celman"},"id":"14056160","localidad_censal":{"id":"14056160","nombre":"Ucacha"},"municipio":{"id":"140469","nombre":"Ucacha"},"nombre":"Ucacha","provincia":{"id":"14","nombre":"Córdoba"}},{"categoria":"Localidad simple","centroide":{"lat":-33.2031138079518,"lon":-63.8626455259537},"departamento":{"id":"14056","nombre":"Juárez Celman"},"id":"14056170","localidad_censal":{"id":"14056170","nombre":"Reducción"},"municipio":{"id":"140455","nombre":"Reducción"},"nombre":"Villa Reducción","provincia":{"id":"14","nombre":"Córdoba"}},{"categoria":"Localidad simple","centroide":{"lat":-33.6053920200864,"lon":-62.625880987744},"departamento":{"id":"14063","nombre":"Marcos Juárez"},"id":"14063010","localidad_censal":{"id":"14063010","nombre":"Alejo Ledesma"},"municipio":{"id":"140476","nombre":"Alejo Ledesma"},"nombre":"Alejo Ledesma","provincia":{"id":"14","nombre":"Córdoba"}},{"categoria":"Localidad simple","centroide":{"lat":-33.6420729225189,"lon":-62.4041194655182},"departamento":{"id":"14063","nombre":"Marcos Juárez"},"id":"14063020","localidad_censal":{"id":"14063020","nombre":"Arias"},"municipio":{"id":"140483","nombre":"Arias"},"nombre":"Arias","provincia":{"id":"14","nombre":"Córdoba"}},{"categoria":"Localidad simple","centroide":{"lat":-33.1275862241272,"lon":-62.094840853455},"departamento":{"id":"14063","nombre":"Marcos Juárez"},"id":"14063030","localidad_censal":{"id":"14063030","nombre":"Camilo Aldao"},"municipio":{"id":"140490","nombre":"Camilo Aldao"},"nombre":"Camilo Aldao","provincia":{"id":"14","nombre":"Córdoba"}},{"categoria":"Localidad simple","centroide":{"lat":-33.2482565790199,"lon":-62.2688345888296},"departamento":{"id":"14063","nombre":"Marcos Juárez"},"id":"14063040","localidad_censal":{"id":"14063040","nombre":"Capitán General Bernardo O Higgins"},"municipio":{"id":"140497","nombre":"Capitán General Bernardo O'Higgins"},"nombre":"Capitán General Bernardo O'Higgins","provincia":{"id":"14","nombre":"Córdoba"}},{"categoria":"Localidad simple","centroide":{"lat":-33.4737649768214,"lon":-62.338907063379},"departamento":{"id":"14063","nombre":"Marcos Juárez"},"id":"14063050","localidad_censal":{"id":"14063050","nombre":"Cavanagh"},"municipio":{"id":"140504","nombre":"Cavanagh"},"nombre":"Cavanagh","provincia":{"id":"14","nombre":"Córdoba"}},{"categoria":"Localidad simple","centroide":{"lat":-33.2582393924,"lon":-62.6075243980859},"departamento":{"id":"14063","nombre":"Marcos Juárez"},"id":"14063060","localidad_censal":{"id":"14063060","nombre":"Colonia Barge"},"municipio":{"id":"142336","nombre":"Colonia Barge"},"nombre":"Colonia Barge","provincia":{"id":"14","nombre":"Córdoba"}},{"categoria":"Localidad simple","centroide":{"lat":-33.3117017575472,"lon":-62.176462774246},"departamento":{"id":"14063","nombre":"Marcos Juárez"},"id":"14063070","localidad_censal":{"id":"14063070","nombre":"Colonia Italiana"},"municipio":{"id":"140511","nombre":"Colonia Italiana"},"nombre":"Colonia Italiana","provincia":{"id":"14","nombre":"Córdoba"}},{"categoria":"Localidad simple","centroide":{"lat":-32.8876809419638,"lon":-61.9517449836933},"departamento":{"id":"14063","nombre":"Marcos Juárez"},"id":"14063080","localidad_censal":{"id":"14063080","nombre":"Colonia Veinticinco"},"municipio":{"id":"140574","nombre":"Los Surgentes"},"nombre":"Colonia Veinticinco","provincia":{"id":"14","nombre":"Córdoba"}},{"categoria":"Localidad simple","centroide":{"lat":-33.2830928544683,"lon":-62.1865429174032},"departamento":{"id":"14063","nombre":"Marcos Juárez"},"id":"14063090","localidad_censal":{"id":"14063090","nombre":"Corral de Bustos Ifflinger"},"municipio":{"id":"140518","nombre":"Corral de Bustos Ifflinger"},"nombre":"Corral de Bustos","provincia":{"id":"14","nombre":"Córdoba"}},{"categoria":"Localidad simple","centroide":{"lat":-33.0083997293961,"lon":-61.8057792803375},"departamento":{"id":"14063","nombre":"Marcos Juárez"},"id":"14063100","localidad_censal":{"id":"14063100","nombre":"Cruz Alta"},"municipio":{"id":"140525","nombre":"Cruz Alta"},"nombre":"Cruz Alta","provincia":{"id":"14","nombre":"Córdoba"}},{"categoria":"Localidad simple","centroide":{"lat":-30.9598738194308,"lon":-65.3103972669276},"departamento":{"id":"14070","nombre":"Minas"},"id":"14070080","localidad_censal":{"id":"14070080","nombre":"Tosno"},"municipio":{"id":"142399","nombre":"Tosno"},"nombre":"Tosno","provincia":{"id":"14","nombre":"Córdoba"}},{"categoria":"Localidad simple","centroide":{"lat":-33.1220805916617,"lon":-62.3028841678808},"departamento":{"id":"14063","nombre":"Marcos Juárez"},"id":"14063110","localidad_censal":{"id":"14063110","nombre":"General Baldissera"},"municipio":{"id":"140532","nombre":"General Baldissera"},"nombre":"General Baldissera","provincia":{"id":"14","nombre":"Córdoba"}},{"categoria":"Localidad simple","centroide":{"lat":-32.7308774807212,"lon":-61.9158266714317},"departamento":{"id":"14063","nombre":"Marcos Juárez"},"id":"14063120","localidad_censal":{"id":"14063120","nombre":"General Roca"},"municipio":{"id":"140539","nombre":"General Roca"},"nombre":"General Roca","provincia":{"id":"14","nombre":"Córdoba"}},{"categoria":"Localidad simple","centroide":{"lat":-33.4642879445387,"lon":-62.4382553098875},"departamento":{"id":"14063","nombre":"Marcos Juárez"},"id":"14063130","localidad_censal":{"id":"14063130","nombre":"Guatimozín"},"municipio":{"id":"140546","nombre":"Guatimozín"},"nombre":"Guatimozín","provincia":{"id":"14","nombre":"Córdoba"}},{"categoria":"Localidad simple","centroide":{"lat":-32.945647467009,"lon":-62.2307908603693},"departamento":{"id":"14063","nombre":"Marcos Juárez"},"id":"14063140","localidad_censal":{"id":"14063140","nombre":"Inriville"},"municipio":{"id":"140553","nombre":"Inriville"},"nombre":"Inriville","provincia":{"id":"14","nombre":"Córdoba"}},{"categoria":"Localidad simple","centroide":{"lat":-33.239697566848,"lon":-62.4015958014292},"departamento":{"id":"14063","nombre":"Marcos Juárez"},"id":"14063150","localidad_censal":{"id":"14063150","nombre":"Isla Verde"},"municipio":{"id":"140560","nombre":"Isla Verde"},"nombre":"Isla Verde","provincia":{"id":"14","nombre":"Córdoba"}},{"categoria":"Localidad simple","centroide":{"lat":-32.6593552693932,"lon":-62.2972675758562},"departamento":{"id":"14063","nombre":"Marcos Juárez"},"id":"14063160","localidad_censal":{"id":"14063160","nombre":"Leones"},"municipio":{"id":"140567","nombre":"Leones"},"nombre":"Leones","provincia":{"id":"14","nombre":"Córdoba"}},{"categoria":"Localidad simple","centroide":{"lat":-32.9852692707788,"lon":-62.0218743100721},"departamento":{"id":"14063","nombre":"Marcos Juárez"},"id":"14063170","localidad_censal":{"id":"14063170","nombre":"Los Surgentes"},"municipio":{"id":"140574","nombre":"Los Surgentes"},"nombre":"Los Surgentes","provincia":{"id":"14","nombre":"Córdoba"}},{"categoria":"Localidad simple","centroide":{"lat":-32.6906362907814,"lon":-62.1011265194652},"departamento":{"id":"14063","nombre":"Marcos Juárez"},"id":"14063180","localidad_censal":{"id":"14063180","nombre":"Marcos Juarez"},"municipio":{"id":"140581","nombre":"Marcos Juárez"},"nombre":"Marcos Juárez","provincia":{"id":"14","nombre":"Córdoba"}},{"categoria":"Localidad simple","centroide":{"lat":-32.9156374383737,"lon":-62.454900955381},"departamento":{"id":"14063","nombre":"Marcos Juárez"},"id":"14063190","localidad_censal":{"id":"14063190","nombre":"Monte Buey"},"municipio":{"id":"140588","nombre":"Monte Buey"},"nombre":"Monte Buey","provincia":{"id":"14","nombre":"Córdoba"}},{"categoria":"Localidad simple","centroide":{"lat":-32.4097129871359,"lon":-62.1023489220675},"departamento":{"id":"14063","nombre":"Marcos Juárez"},"id":"14063210","localidad_censal":{"id":"14063210","nombre":"Saira"},"municipio":{"id":"140595","nombre":"Saira"},"nombre":"Saira","provincia":{"id":"14","nombre":"Córdoba"}},{"categoria":"Localidad simple","centroide":{"lat":-32.9338712550359,"lon":-62.3437118793861},"departamento":{"id":"14063","nombre":"Marcos Juárez"},"id":"14063220","localidad_censal":{"id":"14063220","nombre":"Saladillo"},"municipio":{"id":"142343","nombre":"Saladillo"},"nombre":"Saladillo","provincia":{"id":"14","nombre":"Córdoba"}},{"categoria":"Localidad simple","centroide":{"lat":-32.8347578086408,"lon":-62.2952589654963},"departamento":{"id":"14063","nombre":"Marcos Juárez"},"id":"14063230","localidad_censal":{"id":"14063230","nombre":"Villa Elisa"},"municipio":{"id":"142350","nombre":"Villa Elisa"},"nombre":"Villa Elisa","provincia":{"id":"14","nombre":"Córdoba"}},{"categoria":"Localidad simple","centroide":{"lat":-31.0096689758107,"lon":-65.3612671996185},"departamento":{"id":"14070","nombre":"Minas"},"id":"14070050","localidad_censal":{"id":"14070050","nombre":"La Playa"},"municipio":{"id":"142385","nombre":"La Playa"},"nombre":"La Playa","provincia":{"id":"14","nombre":"Córdoba"}},{"categoria":"Localidad simple","centroide":{"lat":-31.0424218865363,"lon":-65.2835250950022},"departamento":{"id":"14070","nombre":"Minas"},"id":"14070010","localidad_censal":{"id":"14070010","nombre":"Ciénaga Del Coro"},"municipio":{"id":"142357","nombre":"Ciénaga del Coro"},"nombre":"Ciénaga del Coro","provincia":{"id":"14","nombre":"Córdoba"}},{"categoria":"Localidad simple","centroide":{"lat":-30.8003826357539,"lon":-65.65640422135},"departamento":{"id":"14070","nombre":"Minas"},"id":"14070020","localidad_censal":{"id":"14070020","nombre":"El Chacho"},"municipio":{"id":"142364","nombre":"El Chacho"},"nombre":"El Chacho","provincia":{"id":"14","nombre":"Córdoba"}},{"categoria":"Localidad simple","centroide":{"lat":-31.1300757365706,"lon":-65.2159754678766},"departamento":{"id":"14070","nombre":"Minas"},"id":"14070030","localidad_censal":{"id":"14070030","nombre":"Estancia de Guadalupe"},"municipio":{"id":"142371","nombre":"Estancia de Guadalupe"},"nombre":"Estancia de Guadalupe","provincia":{"id":"14","nombre":"Córdoba"}},{"categoria":"Localidad simple","centroide":{"lat":-31.1015929485825,"lon":-65.3292093453157},"departamento":{"id":"14070","nombre":"Minas"},"id":"14070040","localidad_censal":{"id":"14070040","nombre":"Guasapampa"},"municipio":{"id":"142378","nombre":"Guasapampa"},"nombre":"Guasapampa","provincia":{"id":"14","nombre":"Córdoba"}},{"categoria":"Localidad simple","centroide":{"lat":-31.1765584414897,"lon":-65.1018201177792},"departamento":{"id":"14070","nombre":"Minas"},"id":"14070060","localidad_censal":{"id":"14070060","nombre":"San Carlos Minas"},"municipio":{"id":"140602","nombre":"San Carlos Minas"},"nombre":"San Carlos Minas","provincia":{"id":"14","nombre":"Córdoba"}},{"categoria":"Localidad simple","centroide":{"lat":-31.249850218493,"lon":-65.1692870783873},"departamento":{"id":"14070","nombre":"Minas"},"id":"14070070","localidad_censal":{"id":"14070070","nombre":"Talaini"},"municipio":{"id":"142392","nombre":"Talaini"},"nombre":"Talaini","provincia":{"id":"14","nombre":"Córdoba"}},{"categoria":"Localidad simple","centroide":{"lat":-31.4159636346356,"lon":-65.4512532371259},"departamento":{"id":"14077","nombre":"Pocho"},"id":"14077010","localidad_censal":{"id":"14077010","nombre":"Chancani"},"municipio":{"id":"142406","nombre":"Chancani"},"nombre":"Chancani","provincia":{"id":"14","nombre":"Córdoba"}},{"categoria":"Localidad simple","centroide":{"lat":-31.3777759391536,"lon":-65.2898362313984},"departamento":{"id":"14077","nombre":"Pocho"},"id":"14077020","localidad_censal":{"id":"14077020","nombre":"Las Palmas"},"municipio":{"id":"142413","nombre":"Las Palmas"},"nombre":"Las Palmas","provincia":{"id":"14","nombre":"Córdoba"}},{"categoria":"Localidad simple","centroide":{"lat":-31.4071472476818,"lon":-65.0470184171855},"departamento":{"id":"14077","nombre":"Pocho"},"id":"14077030","localidad_censal":{"id":"14077030","nombre":"Los Talares"},"municipio":{"id":"142420","nombre":"Los Talares"},"nombre":"Los Talares","provincia":{"id":"14","nombre":"Córdoba"}},{"categoria":"Localidad simple","centroide":{"lat":-31.3178575767975,"lon":-65.0895253076512},"departamento":{"id":"14077","nombre":"Pocho"},"id":"14077040","localidad_censal":{"id":"14077040","nombre":"Salsacate"},"municipio":{"id":"140609","nombre":"Salsacate"},"nombre":"Salsacate","provincia":{"id":"14","nombre":"Córdoba"}},{"categoria":"Localidad simple","centroide":{"lat":-31.3441844922836,"lon":-64.9190482748753},"departamento":{"id":"14077","nombre":"Pocho"},"id":"14077050","localidad_censal":{"id":"14077050","nombre":"San Geronimo"},"municipio":{"id":"142427","nombre":"San Gerónimo"},"nombre":"San Gerónimo","provincia":{"id":"14","nombre":"Córdoba"}},{"categoria":"Localidad simple","centroide":{"lat":-31.3544884840507,"lon":-64.9759061303191},"departamento":{"id":"14077","nombre":"Pocho"},"id":"14077060","localidad_censal":{"id":"14077060","nombre":"Tala Cañada"},"municipio":{"id":"142434","nombre":"Tala Cañada"},"nombre":"Tala Cañada","provincia":{"id":"14","nombre":"Córdoba"}},{"categoria":"Localidad simple","centroide":{"lat":-31.4901575769203,"lon":-65.2809505456354},"departamento":{"id":"14077","nombre":"Pocho"},"id":"14077080","localidad_censal":{"id":"14077080","nombre":"Villa de Pocho"},"municipio":{"id":"142441","nombre":"Villa de Pocho"},"nombre":"Villa de Pocho","provincia":{"id":"14","nombre":"Córdoba"}},{"categoria":"Localidad simple","centroide":{"lat":-34.0070747945052,"lon":-63.9234765017096},"departamento":{"id":"14084","nombre":"Presidente Roque Sáenz Peña"},"id":"14084010","localidad_censal":{"id":"14084010","nombre":"General Levalle"},"municipio":{"id":"140616","nombre":"General Levalle"},"nombre":"General Levalle","provincia":{"id":"14","nombre":"Córdoba"}},{"categoria":"Localidad simple","centroide":{"lat":-33.9536480908797,"lon":-62.9773029539306},"departamento":{"id":"14084","nombre":"Presidente Roque Sáenz Peña"},"id":"14084020","localidad_censal":{"id":"14084020","nombre":"La Cesira"},"municipio":{"id":"140623","nombre":"La Cesira"},"nombre":"La Cesira","provincia":{"id":"14","nombre":"Córdoba"}},{"categoria":"Localidad simple","centroide":{"lat":-34.1286322353031,"lon":-63.3907017059902},"departamento":{"id":"14084","nombre":"Presidente Roque Sáenz Peña"},"id":"14084030","localidad_censal":{"id":"14084030","nombre":"Laboulaye"},"municipio":{"id":"140630","nombre":"Laboulaye"},"nombre":"Laboulaye","provincia":{"id":"14","nombre":"Córdoba"}},{"categoria":"Localidad simple","centroide":{"lat":-34.2041801239358,"lon":-62.9758471821582},"departamento":{"id":"14084","nombre":"Presidente Roque Sáenz Peña"},"id":"14084040","localidad_censal":{"id":"14084040","nombre":"Leguizamón"},"municipio":{"id":"142448","nombre":"Leguizamón"},"nombre":"Leguizamón","provincia":{"id":"14","nombre":"Córdoba"}},{"categoria":"Localidad simple","centroide":{"lat":-34.3486754803918,"lon":-63.4451505752925},"departamento":{"id":"14084","nombre":"Presidente Roque Sáenz Peña"},"id":"14084050","localidad_censal":{"id":"14084050","nombre":"Melo"},"municipio":{"id":"140637","nombre":"Melo"},"nombre":"Melo","provincia":{"id":"14","nombre":"Córdoba"}},{"categoria":"Localidad simple","centroide":{"lat":-34.0513720434127,"lon":-63.7330655229357},"departamento":{"id":"14084","nombre":"Presidente Roque Sáenz Peña"},"id":"14084060","localidad_censal":{"id":"14084060","nombre":"Río Bamba"},"municipio":{"id":"142455","nombre":"Río Bamba"},"nombre":"Río Bamba","provincia":{"id":"14","nombre":"Córdoba"}},{"categoria":"Localidad simple","centroide":{"lat":-34.171775958063,"lon":-63.1540264482231},"departamento":{"id":"14084","nombre":"Presidente Roque Sáenz Peña"},"id":"14084070","localidad_censal":{"id":"14084070","nombre":"Rosales"},"municipio":{"id":"140644","nombre":"Rosales"},"nombre":"Rosales","provincia":{"id":"14","nombre":"Córdoba"}},{"categoria":"Localidad simple","centroide":{"lat":-34.5117297210437,"lon":-63.7088418221183},"departamento":{"id":"14084","nombre":"Presidente Roque Sáenz Peña"},"id":"14084080","localidad_censal":{"id":"14084080","nombre":"San Joaquin"},"municipio":{"id":"142462","nombre":"San Joaquín"},"nombre":"San Joaquín","provincia":{"id":"14","nombre":"Córdoba"}},{"categoria":"Localidad simple","centroide":{"lat":-34.4706743272088,"lon":-63.5402860917135},"departamento":{"id":"14084","nombre":"Presidente Roque Sáenz Peña"},"id":"14084090","localidad_censal":{"id":"14084090","nombre":"Serrano"},"municipio":{"id":"140651","nombre":"Serrano"},"nombre":"Serrano","provincia":{"id":"14","nombre":"Córdoba"}},{"categoria":"Localidad simple","centroide":{"lat":-34.2979365972573,"lon":-63.2685389833266},"departamento":{"id":"14084","nombre":"Presidente Roque Sáenz Peña"},"id":"14084100","localidad_censal":{"id":"14084100","nombre":"Villa Rossi"},"municipio":{"id":"140658","nombre":"Villa Rossi"},"nombre":"Villa Rossi","provincia":{"id":"14","nombre":"Córdoba"}},{"categoria":"Componente de localidad compuesta","centroide":{"lat":-31.3139053093993,"lon":-64.4640350184571},"departamento":{"id":"14091","nombre":"Punilla"},"id":"14091020","localidad_censal":{"id":"14091020","nombre":"Bialet Massé"},"municipio":{"id":"140665","nombre":"Bialet Massé"},"nombre":"Bialet Massé","provincia":{"id":"14","nombre":"Córdoba"}},{"categoria":"Localidad simple","centroide":{"lat":-31.3905569618048,"lon":-64.5603055530165},"departamento":{"id":"14091","nombre":"Punilla"},"id":"14091030","localidad_censal":{"id":"14091030","nombre":"Cabalango"},"municipio":{"id":"142469","nombre":"Cabalango"},"nombre":"Cabalango","provincia":{"id":"14","nombre":"Córdoba"}},{"categoria":"Localidad simple","centroide":{"lat":-30.8568691658209,"lon":-64.5263505223853},"departamento":{"id":"14091","nombre":"Punilla"},"id":"14091040","localidad_censal":{"id":"14091040","nombre":"Capilla del Monte"},"municipio":{"id":"140672","nombre":"Capilla del Monte"},"nombre":"Capilla del Monte","provincia":{"id":"14","nombre":"Córdoba"}},{"categoria":"Componente de localidad compuesta","centroide":{"lat":-31.1528415546034,"lon":-64.4734545635358},"departamento":{"id":"14091","nombre":"Punilla"},"id":"14091050","localidad_censal":{"id":"14091050","nombre":"Casa Grande"},"municipio":{"id":"142476","nombre":"Casa Grande"},"nombre":"Casa Grande","provincia":{"id":"14","nombre":"Córdoba"}},{"categoria":"Localidad simple","centroide":{"lat":-30.7749790578338,"lon":-64.5441693337156},"departamento":{"id":"14091","nombre":"Punilla"},"id":"14091060","localidad_censal":{"id":"14091060","nombre":"Charbonier"},"municipio":{"id":"142483","nombre":"Charbonier"},"nombre":"Charbonier","provincia":{"id":"14","nombre":"Córdoba"}},{"categoria":"Componente de localidad compuesta","centroide":{"lat":-31.2436682815352,"lon":-64.465348549937},"departamento":{"id":"14091","nombre":"Punilla"},"id":"14091070","localidad_censal":{"id":"14091070","nombre":"Cosquín"},"municipio":{"id":"140679","nombre":"Cosquín"},"nombre":"Cosquín","provincia":{"id":"14","nombre":"Córdoba"}},{"categoria":"Componente de localidad compuesta","centroide":{"lat":-31.4803348492041,"lon":-64.5786921787276},"departamento":{"id":"14091","nombre":"Punilla"},"id":"14091080","localidad_censal":{"id":"14091080","nombre":"Cuesta Blanca"},"municipio":{"id":"142490","nombre":"Cuesta Blanca"},"nombre":"Cuesta Blanca","provincia":{"id":"14","nombre":"Córdoba"}},{"categoria":"Componente de localidad compuesta","centroide":{"lat":-31.3820274335749,"lon":-64.5314218605319},"departamento":{"id":"14091","nombre":"Punilla"},"id":"14091090","localidad_censal":{"id":"14091090","nombre":"Estancia Vieja"},"municipio":{"id":"142497","nombre":"Estancia Vieja"},"nombre":"Estancia Vieja","provincia":{"id":"14","nombre":"Córdoba"}},{"categoria":"Componente de localidad compuesta","centroide":{"lat":-31.0752894665762,"lon":-64.4908280142166},"departamento":{"id":"14091","nombre":"Punilla"},"id":"14091100","localidad_censal":{"id":"14091100","nombre":"Huerta Grande"},"municipio":{"id":"140686","nombre":"Huerta Grande"},"nombre":"Huerta Grande","provincia":{"id":"14","nombre":"Córdoba"}},{"categoria":"Componente de localidad compuesta","centroide":{"lat":-30.9821337813884,"lon":-64.4941975929075},"departamento":{"id":"14091","nombre":"Punilla"},"id":"14091110","localidad_censal":{"id":"14091110","nombre":"La Cumbre"},"municipio":{"id":"140693","nombre":"La Cumbre"},"nombre":"La Cumbre","provincia":{"id":"14","nombre":"Córdoba"}},{"categoria":"Componente de localidad compuesta","centroide":{"lat":-31.0944265203633,"lon":-64.4829476480663},"departamento":{"id":"14091","nombre":"Punilla"},"id":"14091120","localidad_censal":{"id":"14091120","nombre":"La Falda"},"municipio":{"id":"140700","nombre":"La Falda"},"nombre":"La Falda","provincia":{"id":"14","nombre":"Córdoba"}},{"categoria":"Localidad simple","centroide":{"lat":-31.5174192341833,"lon":-64.5341843067071},"departamento":{"id":"14091","nombre":"Punilla"},"id":"14091130","localidad_censal":{"id":"14091130","nombre":"Las Jarillas"},"municipio":{"id":"140710","nombre":"San Antonio de Arredondo"},"nombre":"Las Jarillas","provincia":{"id":"14","nombre":"Córdoba"}},{"categoria":"Componente de localidad compuesta","centroide":{"lat":-30.9264646838313,"lon":-64.5003923888041},"departamento":{"id":"14091","nombre":"Punilla"},"id":"14091140","localidad_censal":{"id":"14091140","nombre":"Los Cocos"},"municipio":{"id":"140707","nombre":"Los Cocos"},"nombre":"Los Cocos","provincia":{"id":"14","nombre":"Córdoba"}},{"categoria":"Localidad simple","centroide":{"lat":-31.2970218527109,"lon":-64.5732543628865},"departamento":{"id":"14091","nombre":"Punilla"},"id":"14091150","localidad_censal":{"id":"14091150","nombre":"Malli­n"},"municipio":{"id":"140721","nombre":"Santa María de Punilla"},"nombre":"Mallín","provincia":{"id":"14","nombre":"Córdoba"}},{"categoria":"Componente de localidad compuesta","centroide":{"lat":-31.4722715599591,"lon":-64.5414696810019},"departamento":{"id":"14091","nombre":"Punilla"},"id":"14091160","localidad_censal":{"id":"14091160","nombre":"Mayu Sumaj"},"municipio":{"id":"142504","nombre":"Mayu Sumaj"},"nombre":"Mayu Sumaj","provincia":{"id":"14","nombre":"Córdoba"}},{"categoria":"Componente de localidad compuesta","centroide":{"lat":-31.4827918792713,"lon":-64.5278104812233},"departamento":{"id":"14091","nombre":"Punilla"},"id":"14091180","localidad_censal":{"id":"14091180","nombre":"San Antonio de Arredondo"},"municipio":{"id":"140710","nombre":"San Antonio de Arredondo"},"nombre":"San Antonio de Arredondo","provincia":{"id":"14","nombre":"Córdoba"}},{"categoria":"Componente de localidad compuesta","centroide":{"lat":-30.9211407617316,"lon":-64.5363714632324},"departamento":{"id":"14091","nombre":"Punilla"},"id":"14091190","localidad_censal":{"id":"14091190","nombre":"San Esteban"},"municipio":{"id":"140714","nombre":"San Esteban"},"nombre":"San Esteban","provincia":{"id":"14","nombre":"Córdoba"}},{"categoria":"Componente de localidad compuesta","centroide":{"lat":-31.3452988597799,"lon":-64.4511033928957},"departamento":{"id":"14091","nombre":"Punilla"},"id":"14091200","localidad_censal":{"id":"14091200","nombre":"San Roque"},"municipio":{"id":"142518","nombre":"San Roque"},"nombre":"San Roque","provincia":{"id":"14","nombre":"Córdoba"}},{"categoria":"Componente de localidad compuesta","centroide":{"lat":-31.275638255093,"lon":-64.4636272645669},"departamento":{"id":"14091","nombre":"Punilla"},"id":"14091210","localidad_censal":{"id":"14091210","nombre":"Santa Mari­a de Punilla"},"municipio":{"id":"140721","nombre":"Santa María de Punilla"},"nombre":"Santa María de Punilla","provincia":{"id":"14","nombre":"Córdoba"}},{"categoria":"Componente de localidad compuesta","centroide":{"lat":-31.47331489974,"lon":-64.5669430617586},"departamento":{"id":"14091","nombre":"Punilla"},"id":"14091220","localidad_censal":{"id":"14091220","nombre":"Tala Huasi"},"municipio":{"id":"142525","nombre":"Tala Huasi"},"nombre":"Tala Huasi","provincia":{"id":"14","nombre":"Córdoba"}},{"categoria":"Componente de localidad compuesta","centroide":{"lat":-31.3547963972077,"lon":-64.5923472529954},"departamento":{"id":"14091","nombre":"Punilla"},"id":"14091230","localidad_censal":{"id":"14091230","nombre":"Tanti"},"municipio":{"id":"140728","nombre":"Tanti"},"nombre":"Tanti","provincia":{"id":"14","nombre":"Córdoba"}},{"categoria":"Componente de localidad compuesta","centroide":{"lat":-31.1139612029398,"lon":-64.4851589438646},"departamento":{"id":"14091","nombre":"Punilla"},"id":"14091240","localidad_censal":{"id":"14091240","nombre":"Valle Hermoso"},"municipio":{"id":"140735","nombre":"Valle Hermoso"},"nombre":"Valle Hermoso","provincia":{"id":"14","nombre":"Córdoba"}},{"categoria":"Componente de localidad compuesta","centroide":{"lat":-31.4179169402695,"lon":-64.4940291640464},"departamento":{"id":"14091","nombre":"Punilla"},"id":"14091250","localidad_censal":{"id":"14091250","nombre":"Villa Carlos Paz"},"municipio":{"id":"140742","nombre":"Villa Carlos Paz"},"nombre":"Villa Carlos Paz","provincia":{"id":"14","nombre":"Córdoba"}},{"categoria":"Localidad simple","centroide":{"lat":-31.3905452515201,"lon":-64.5956887243474},"departamento":{"id":"14091","nombre":"Punilla"},"id":"14091260","localidad_censal":{"id":"14091260","nombre":"Villa Flor Serrana"},"municipio":{"id":"140728","nombre":"Tanti"},"nombre":"Villa Flor Serrana","provincia":{"id":"14","nombre":"Córdoba"}},{"categoria":"Componente de localidad compuesta","centroide":{"lat":-31.0502719319409,"lon":-64.496785385042},"departamento":{"id":"14091","nombre":"Punilla"},"id":"14091270","localidad_censal":{"id":"14091270","nombre":"Villa Giardino"},"municipio":{"id":"140749","nombre":"Villa Giardino"},"nombre":"Villa Giardino","provincia":{"id":"14","nombre":"Córdoba"}},{"categoria":"Localidad simple","centroide":{"lat":-31.3734098206203,"lon":-64.4831976847182},"departamento":{"id":"14091","nombre":"Punilla"},"id":"14091280","localidad_censal":{"id":"14091280","nombre":"Villa Lago Azul"},"municipio":{"id":"140754","nombre":"Villa Santa Cruz del Lago"},"nombre":"Villa Lago Azul","provincia":{"id":"14","nombre":"Córdoba"}},{"categoria":"Componente de localidad compuesta","centroide":{"lat":-31.3464555064848,"lon":-64.4824487591943},"departamento":{"id":"14091","nombre":"Punilla"},"id":"14091290","localidad_censal":{"id":"14091290","nombre":"Villa Parque Siquimán"},"municipio":{"id":"142532","nombre":"Villa Parque Síquiman"},"nombre":"Villa Parque Siquimán","provincia":{"id":"14","nombre":"Córdoba"}},{"categoria":"Componente de localidad compuesta","centroide":{"lat":-31.4826750286686,"lon":-64.5647262933493},"departamento":{"id":"14091","nombre":"Punilla"},"id":"14091300","localidad_censal":{"id":"14091300","nombre":"Villa Río Icho Cruz"},"municipio":{"id":"140752","nombre":"Villa Río Icho Cruz"},"nombre":"Villa Río Icho Cruz","provincia":{"id":"14","nombre":"Córdoba"}},{"categoria":"Componente de localidad compuesta","centroide":{"lat":-31.3663813401722,"lon":-64.5219985925242},"departamento":{"id":"14091","nombre":"Punilla"},"id":"14091320","localidad_censal":{"id":"14091320","nombre":"Villa Santa Cruz del Lago"},"municipio":{"id":"140754","nombre":"Villa Santa Cruz del Lago"},"nombre":"Villa Santa Cruz del Lago","provincia":{"id":"14","nombre":"Córdoba"}},{"categoria":"Localidad simple","centroide":{"lat":-33.1744471620908,"lon":-64.9920618144743},"departamento":{"id":"14098","nombre":"Río Cuarto"},"id":"14098010","localidad_censal":{"id":"14098010","nombre":"Achiras"},"municipio":{"id":"140756","nombre":"Achiras"},"nombre":"Achiras","provincia":{"id":"14","nombre":"Córdoba"}},{"categoria":"Localidad simple","centroide":{"lat":-33.6320303880364,"lon":-64.0216780090112},"departamento":{"id":"14098","nombre":"Río Cuarto"},"id":"14098020","localidad_censal":{"id":"14098020","nombre":"Adelia María"},"municipio":{"id":"140763","nombre":"Adelia María"},"nombre":"Adelia María","provincia":{"id":"14","nombre":"Córdoba"}},{"categoria":"Localidad simple","centroide":{"lat":-32.7588292300939,"lon":-64.3340334156491},"departamento":{"id":"14098","nombre":"Río Cuarto"},"id":"14098030","localidad_censal":{"id":"14098030","nombre":"Alcira"},"municipio":{"id":"140770","nombre":"Alcira"},"nombre":"Alcira Gigena","provincia":{"id":"14","nombre":"Córdoba"}},{"categoria":"Localidad simple","centroide":{"lat":-32.6921124082415,"lon":-64.7235966023545},"departamento":{"id":"14098","nombre":"Río Cuarto"},"id":"14098040","localidad_censal":{"id":"14098040","nombre":"Alpa Corral"},"municipio":{"id":"140777","nombre":"Alpa Corral"},"nombre":"Alpa Corral","provincia":{"id":"14","nombre":"Córdoba"}},{"categoria":"Localidad simple","centroide":{"lat":-32.4528417351187,"lon":-64.3879391106245},"departamento":{"id":"14098","nombre":"Río Cuarto"},"id":"14098050","localidad_censal":{"id":"14098050","nombre":"Berrotarán"},"municipio":{"id":"140784","nombre":"Berrotarán"},"nombre":"Berrotarán","provincia":{"id":"14","nombre":"Córdoba"}},{"categoria":"Localidad simple","centroide":{"lat":-33.5059261778155,"lon":-64.6782186707837},"departamento":{"id":"14098","nombre":"Río Cuarto"},"id":"14098060","localidad_censal":{"id":"14098060","nombre":"Bulnes"},"municipio":{"id":"140791","nombre":"Bulnes"},"nombre":"Bulnes","provincia":{"id":"14","nombre":"Córdoba"}},{"categoria":"Localidad simple","centroide":{"lat":-33.5556299871625,"lon":-65.0026547353906},"departamento":{"id":"14098","nombre":"Río Cuarto"},"id":"14098070","localidad_censal":{"id":"14098070","nombre":"Chaján"},"municipio":{"id":"140798","nombre":"Chaján"},"nombre":"Chaján","provincia":{"id":"14","nombre":"Córdoba"}},{"categoria":"Localidad simple","centroide":{"lat":-33.0093371221871,"lon":-64.1699747861705},"departamento":{"id":"14098","nombre":"Río Cuarto"},"id":"14098080","localidad_censal":{"id":"14098080","nombre":"Chucul"},"municipio":{"id":"142553","nombre":"Chucul"},"nombre":"Chucul","provincia":{"id":"14","nombre":"Córdoba"}},{"categoria":"Localidad simple","centroide":{"lat":-32.8474045290245,"lon":-64.3610770121251},"departamento":{"id":"14098","nombre":"Río Cuarto"},"id":"14098090","localidad_censal":{"id":"14098090","nombre":"Coronel Baigorria"},"municipio":{"id":"140805","nombre":"Coronel Baigorria"},"nombre":"Coronel Baigorria","provincia":{"id":"14","nombre":"Córdoba"}},{"categoria":"Localidad simple","centroide":{"lat":-33.6227285213653,"lon":-64.5970481396538},"departamento":{"id":"14098","nombre":"Río Cuarto"},"id":"14098100","localidad_censal":{"id":"14098100","nombre":"Coronel Moldes"},"municipio":{"id":"140812","nombre":"Coronel Moldes"},"nombre":"Coronel Moldes","provincia":{"id":"14","nombre":"Córdoba"}},{"categoria":"Localidad simple","centroide":{"lat":-32.5703939625154,"lon":-64.3939049255638},"departamento":{"id":"14098","nombre":"Río Cuarto"},"id":"14098110","localidad_censal":{"id":"14098110","nombre":"Elena"},"municipio":{"id":"140819","nombre":"Elena"},"nombre":"Elena","provincia":{"id":"14","nombre":"Córdoba"}},{"categoria":"Localidad simple","centroide":{"lat":-33.1868443218852,"lon":-64.7251128795183},"departamento":{"id":"14098","nombre":"Río Cuarto"},"id":"14098120","localidad_censal":{"id":"14098120","nombre":"La Carolina El Potosi"},"municipio":{"id":"142560","nombre":"La Carolina El Potosí"},"nombre":"La Carolina","provincia":{"id":"14","nombre":"Córdoba"}},{"categoria":"Localidad simple","centroide":{"lat":-33.9796449671994,"lon":-64.0834562449082},"departamento":{"id":"14098","nombre":"Río Cuarto"},"id":"14098130","localidad_censal":{"id":"14098130","nombre":"La Cautiva"},"municipio":{"id":"140826","nombre":"La Cautiva"},"nombre":"La Cautiva","provincia":{"id":"14","nombre":"Córdoba"}},{"categoria":"Localidad simple","centroide":{"lat":-33.2081613189294,"lon":-64.2584439924227},"departamento":{"id":"14098","nombre":"Río Cuarto"},"id":"14098140","localidad_censal":{"id":"14098140","nombre":"La Gilda"},"municipio":{"id":null,"nombre":null},"nombre":"La Gilda","provincia":{"id":"14","nombre":"Córdoba"}},{"categoria":"Localidad simple","centroide":{"lat":-33.2802823361599,"lon":-63.9753761495156},"departamento":{"id":"14098","nombre":"Río Cuarto"},"id":"14098150","localidad_censal":{"id":"14098150","nombre":"Las Acequias"},"municipio":{"id":"140833","nombre":"Las Acequias"},"nombre":"Las Acequias","provincia":{"id":"14","nombre":"Córdoba"}},{"categoria":"Localidad simple","centroide":{"lat":-32.8884091801626,"lon":-64.8448424724358},"departamento":{"id":"14098","nombre":"Río Cuarto"},"id":"14098160","localidad_censal":{"id":"14098160","nombre":"Las Albahacas"},"municipio":{"id":"142567","nombre":"Las Albahacas"},"nombre":"Las Albahacas","provincia":{"id":"14","nombre":"Córdoba"}},{"categoria":"Componente de localidad compuesta","centroide":{"lat":-33.0898038759835,"lon":-64.2853623066603},"departamento":{"id":"14098","nombre":"Río Cuarto"},"id":"14098170","localidad_censal":{"id":"14098170","nombre":"Las Higueras"},"municipio":{"id":"140840","nombre":"Las Higueras"},"nombre":"Las Higueras","provincia":{"id":"14","nombre":"Córdoba"}},{"categoria":"Localidad simple","centroide":{"lat":-32.5347057052658,"lon":-64.1045725963687},"departamento":{"id":"14098","nombre":"Río Cuarto"},"id":"14098180","localidad_censal":{"id":"14098180","nombre":"Las Peñas Sud"},"municipio":{"id":"142574","nombre":"Las Peñas Sud"},"nombre":"Las Peñas","provincia":{"id":"14","nombre":"Córdoba"}},{"categoria":"Localidad simple","centroide":{"lat":-33.2834447901943,"lon":-64.5777124849718},"departamento":{"id":"14098","nombre":"Río Cuarto"},"id":"14098190","localidad_censal":{"id":"14098190","nombre":"Las Vertientes"},"municipio":{"id":"140847","nombre":"Las Vertientes"},"nombre":"Las Vertientes","provincia":{"id":"14","nombre":"Córdoba"}},{"categoria":"Localidad simple","centroide":{"lat":-33.4904055824832,"lon":-64.4308786537682},"departamento":{"id":"14098","nombre":"Río Cuarto"},"id":"14098200","localidad_censal":{"id":"14098200","nombre":"Malena"},"municipio":{"id":"142581","nombre":"Malena"},"nombre":"Malena","provincia":{"id":"14","nombre":"Córdoba"}},{"categoria":"Localidad simple","centroide":{"lat":-33.6390864181845,"lon":-63.8896728302675},"departamento":{"id":"14098","nombre":"Río Cuarto"},"id":"14098210","localidad_censal":{"id":"14098210","nombre":"Monte de los Gauchos"},"municipio":{"id":"140854","nombre":"Monte de los Gauchos"},"nombre":"Monte de los Gauchos","provincia":{"id":"14","nombre":"Córdoba"}},{"categoria":"Componente de localidad compuesta","centroide":{"lat":-33.1238369342208,"lon":-64.3490032179798},"departamento":{"id":"14098","nombre":"Río Cuarto"},"id":"14098230","localidad_censal":{"id":"14098230","nombre":"Río Cuarto"},"municipio":{"id":"140861","nombre":"Río Cuarto"},"nombre":"Río Cuarto","provincia":{"id":"14","nombre":"Córdoba"}},{"categoria":"Localidad simple","centroide":{"lat":-33.3840227581931,"lon":-64.722878268168},"departamento":{"id":"14098","nombre":"Río Cuarto"},"id":"14098240","localidad_censal":{"id":"14098240","nombre":"Sampacho"},"municipio":{"id":"140868","nombre":"Sampacho"},"nombre":"Sampacho","provincia":{"id":"14","nombre":"Córdoba"}},{"categoria":"Localidad simple","centroide":{"lat":-33.498548483794,"lon":-64.3147319478558},"departamento":{"id":"14098","nombre":"Río Cuarto"},"id":"14098250","localidad_censal":{"id":"14098250","nombre":"San Basilio"},"municipio":{"id":"140875","nombre":"San Basilio"},"nombre":"San Basilio","provincia":{"id":"14","nombre":"Córdoba"}},{"categoria":"Localidad simple","centroide":{"lat":-33.2051899707377,"lon":-64.4378286821745},"departamento":{"id":"14098","nombre":"Río Cuarto"},"id":"14098260","localidad_censal":{"id":"14098260","nombre":"Santa Catalina Holmberg"},"municipio":{"id":"140882","nombre":"Santa Catalina Holmberg"},"nombre":"Santa Catalina Holmberg","provincia":{"id":"14","nombre":"Córdoba"}},{"categoria":"Localidad simple","centroide":{"lat":-33.439992150182,"lon":-64.830882262924},"departamento":{"id":"14098","nombre":"Río Cuarto"},"id":"14098270","localidad_censal":{"id":"14098270","nombre":"Suco"},"municipio":{"id":"142588","nombre":"Suco"},"nombre":"Suco","provincia":{"id":"14","nombre":"Córdoba"}},{"categoria":"Localidad simple","centroide":{"lat":-33.8196836254827,"lon":-64.4576700736724},"departamento":{"id":"14098","nombre":"Río Cuarto"},"id":"14098280","localidad_censal":{"id":"14098280","nombre":"Tosquita"},"municipio":{"id":"140889","nombre":"Tosquita"},"nombre":"Tosquitas","provincia":{"id":"14","nombre":"Córdoba"}},{"categoria":"Localidad simple","centroide":{"lat":-33.9156416650297,"lon":-64.3898545567239},"departamento":{"id":"14098","nombre":"Río Cuarto"},"id":"14098290","localidad_censal":{"id":"14098290","nombre":"Vicuña Mackenna"},"municipio":{"id":"140896","nombre":"Vicuña Mackenna"},"nombre":"Vicuña Mackenna","provincia":{"id":"14","nombre":"Córdoba"}},{"categoria":"Localidad simple","centroide":{"lat":-32.8925554182168,"lon":-64.8679552261021},"departamento":{"id":"14098","nombre":"Río Cuarto"},"id":"14098300","localidad_censal":{"id":"14098300","nombre":"Villa El Chacay"},"municipio":{"id":"142595","nombre":"Villa El Chacay"},"nombre":"Villa El Chacay","provincia":{"id":"14","nombre":"Córdoba"}},{"categoria":"Localidad simple","centroide":{"lat":-33.8737376102712,"lon":-64.6895940042447},"departamento":{"id":"14098","nombre":"Río Cuarto"},"id":"14098320","localidad_censal":{"id":"14098320","nombre":"Washington"},"municipio":{"id":"142602","nombre":"Washington"},"nombre":"Washington","provincia":{"id":"14","nombre":"Córdoba"}},{"categoria":"Localidad simple","centroide":{"lat":-30.9029674267497,"lon":-63.7063294940983},"departamento":{"id":"14105","nombre":"Río Primero"},"id":"14105010","localidad_censal":{"id":"14105010","nombre":"Atahona"},"municipio":{"id":"142609","nombre":"Atahona"},"nombre":"Atahona","provincia":{"id":"14","nombre":"Córdoba"}},{"categoria":"Localidad simple","centroide":{"lat":-31.4297203867713,"lon":-63.5877259163344},"departamento":{"id":"14105","nombre":"Río Primero"},"id":"14105020","localidad_censal":{"id":"14105020","nombre":"Cañada De Machado"},"municipio":{"id":"142616","nombre":"Cañada de Machado"},"nombre":"Cañada de Machado","provincia":{"id":"14","nombre":"Córdoba"}},{"categoria":"Localidad simple","centroide":{"lat":-31.4305558847437,"lon":-63.832425211005},"departamento":{"id":"14105","nombre":"Río Primero"},"id":"14105030","localidad_censal":{"id":"14105030","nombre":"Capilla de los Remedios"},"municipio":{"id":"142623","nombre":"Capilla de los Remedios"},"nombre":"Capilla de los Remedios","provincia":{"id":"14","nombre":"Córdoba"}},{"categoria":"Localidad simple","centroide":{"lat":-30.7603966656184,"lon":-63.5612423391006},"departamento":{"id":"14105","nombre":"Río Primero"},"id":"14105040","localidad_censal":{"id":"14105040","nombre":"Chalacea"},"municipio":{"id":"142630","nombre":"Chalacea"},"nombre":"Chalacea","provincia":{"id":"14","nombre":"Córdoba"}},{"categoria":"Localidad simple","centroide":{"lat":-31.2085480364788,"lon":-63.2229686703641},"departamento":{"id":"14105","nombre":"Río Primero"},"id":"14105050","localidad_censal":{"id":"14105050","nombre":"Colonia Las Cuatro Esquinas"},"municipio":{"id":"142637","nombre":"Colonia Las Cuatro Esquinas"},"nombre":"Colonia Las Cuatro Esquinas","provincia":{"id":"14","nombre":"Córdoba"}},{"categoria":"Localidad simple","centroide":{"lat":-31.0285400659698,"lon":-63.3383832232436},"departamento":{"id":"14105","nombre":"Río Primero"},"id":"14105060","localidad_censal":{"id":"14105060","nombre":"Diego de Rojas"},"municipio":{"id":"142651","nombre":"Diego de Rojas"},"nombre":"Diego de Rojas","provincia":{"id":"14","nombre":"Córdoba"}},{"categoria":"Localidad simple","centroide":{"lat":-31.116407937563,"lon":-63.6016162850712},"departamento":{"id":"14105","nombre":"Río Primero"},"id":"14105070","localidad_censal":{"id":"14105070","nombre":"El Alcalde"},"municipio":{"id":null,"nombre":null},"nombre":"El Alcalde","provincia":{"id":"14","nombre":"Córdoba"}},{"categoria":"Localidad simple","centroide":{"lat":-31.0176067254515,"lon":-63.6053511676616},"departamento":{"id":"14105","nombre":"Río Primero"},"id":"14105080","localidad_censal":{"id":"14105080","nombre":"El Crispín"},"municipio":{"id":"142658","nombre":"El Crispín"},