{"cantidad":182,"inicio":0,"localidades":[{"categoria":"Entidad","centroide":{"lat":-32.1795681044772,"lon":-58.213321598791},"departamento":{"id":"30008","nombre":"Colón"},"id":"3000809001","localidad_censal":{"id":"30008090","nombre":"San José"},"municipio":{"id":"300014","nombre":"San José"},"nombre":"El Brillante","provincia":{"id":"30","nombre":"Entre Ríos"}},{"categoria":"Entidad","centroide":{"lat":-32.1819731193292,"lon":-58.1946826986345},"departamento":{"id":"30008","nombre":"Colón"},"id":"3000809002","localidad_censal":{"id":"30008090","nombre":"San José"},"municipio":{"id":"300014","nombre":"San José"},"nombre":"El Colorado","provincia":{"id":"30","nombre":"Entre Ríos"}},{"categoria":"Entidad","centroide":{"lat":-32.2084950261875,"lon":-58.2186724884732},"departamento":{"id":"30008","nombre":"Colón"},"id":"3000809003","localidad_censal":{"id":"30008090","nombre":"San José"},"municipio":{"id":"300014","nombre":"San José"},"nombre":"San José","provincia":{"id":"30","nombre":"Entre Ríos"}},{"categoria":"Entidad","centroide":{"lat":-31.4346390911775,"lon":-58.0719424917441},"departamento":{"id":"30015","nombre":"Concordia"},"id":"3001506001","localidad_censal":{"id":"30015060","nombre":"Concordia"},"municipio":{"id":"300042","nombre":"Concordia"},"nombre":"Benito Legerén","provincia":{"id":"30","nombre":"Entre Ríos"}},{"categoria":"Entidad","centroide":{"lat":-31.3982917145809,"lon":-58.0697697974359},"departamento":{"id":"30015","nombre":"Concordia"},"id":"3001506002","localidad_censal":{"id":"30015060","nombre":"Concordia"},"municipio":{"id":"300042","nombre":"Concordia"},"nombre":"Villa Adela","provincia":{"id":"30","nombre":"Entre Ríos"}},{"categoria":"Entidad","centroide":{"lat":-31.4111605940935,"lon":-58.0792668875232},"departamento":{"id":"30015","nombre":"Concordia"},"id":"3001506003","localidad_censal":{"id":"30015060","nombre":"Concordia"},"municipio":{"id":"300042","nombre":"Concordia"},"nombre":"Las Tejas","provincia":{"id":"30","nombre":"Entre Ríos"}},{"categoria":"Entidad","centroide":{"lat":-31.3974508914818,"lon":-58.0172034297914},"departamento":{"id":"30015","nombre":"Concordia"},"id":"3001506005","localidad_censal":{"id":"30015060","nombre":"Concordia"},"municipio":{"id":"300042","nombre":"Concordia"},"nombre":"Concordia","provincia":{"id":"30","nombre":"Entre Ríos"}},{"categoria":"Entidad","centroide":{"lat":-31.3218570608507,"lon":-58.0144861434651},"departamento":{"id":"30015","nombre":"Concordia"},"id":"3001506007","localidad_censal":{"id":"30015060","nombre":"Concordia"},"municipio":{"id":"300042","nombre":"Concordia"},"nombre":"Villa Zorraquín","provincia":{"id":"30","nombre":"Entre Ríos"}},{"categoria":"Entidad","centroide":{"lat":-32.0671282176756,"lon":-60.6426461219973},"departamento":{"id":"30021","nombre":"Diamante"},"id":"3002108001","localidad_censal":{"id":"30021080","nombre":"Diamante"},"municipio":{"id":"300084","nombre":"Diamante"},"nombre":"Diamante","provincia":{"id":"30","nombre":"Entre Ríos"}},{"categoria":"Entidad","centroide":{"lat":-32.0537739076169,"lon":-60.6124866224263},"departamento":{"id":"30021","nombre":"Diamante"},"id":"3002108002","localidad_censal":{"id":"30021080","nombre":"Diamante"},"municipio":{"id":"300084","nombre":"Diamante"},"nombre":"Strobel","provincia":{"id":"30","nombre":"Entre Ríos"}},{"categoria":"Entidad","centroide":{"lat":-32.0558292988722,"lon":-60.4468862677802},"departamento":{"id":"30021","nombre":"Diamante"},"id":"3002115001","localidad_censal":{"id":"30021150","nombre":"Villa Libertador San Martín"},"municipio":{"id":"300098","nombre":"Villa Libertador San Martín"},"nombre":"Estación Puiggari","provincia":{"id":"30","nombre":"Entre Ríos"}},{"categoria":"Entidad","centroide":{"lat":-32.0739285541973,"lon":-60.4610408161734},"departamento":{"id":"30021","nombre":"Diamante"},"id":"3002115002","localidad_censal":{"id":"30021150","nombre":"Villa Libertador San Martín"},"municipio":{"id":"300098","nombre":"Villa Libertador San Martín"},"nombre":"Villa Libertador San Martín","provincia":{"id":"30","nombre":"Entre Ríos"}},{"categoria":"Entidad","centroide":{"lat":-31.582388959984,"lon":-60.0736871986697},"departamento":{"id":"30084","nombre":"Paraná"},"id":"3008405001","localidad_censal":{"id":"30084050","nombre":"Cerrito"},"municipio":{"id":"300294","nombre":"Cerrito"},"nombre":"Cerrito","provincia":{"id":"30","nombre":"Entre Ríos"}},{"categoria":"Entidad","centroide":{"lat":-31.5870037147946,"lon":-60.0601610854207},"departamento":{"id":"30084","nombre":"Paraná"},"id":"3008405002","localidad_censal":{"id":"30084050","nombre":"Cerrito"},"municipio":{"id":"300294","nombre":"Cerrito"},"nombre":"Pueblo Moreno","provincia":{"id":"30","nombre":"Entre Ríos"}},{"categoria":"Localidad simple","centroide":{"lat":-31.8672898395356,"lon":-58.4483085815981},"departamento":{"id":"30008","nombre":"Colón"},"id":"30008010","localidad_censal":{"id":"30008010","nombre":"Arroyo Barú"},"municipio":{"id":"302007","nombre":"Arroyo Barú"},"nombre":"Arroyo Barú","provincia":{"id":"30","nombre":"Entre Ríos"}},{"categoria":"Localidad simple","centroide":{"lat":-32.2250500793422,"lon":-58.1422695022137},"departamento":{"id":"30008","nombre":"Colón"},"id":"30008020","localidad_censal":{"id":"30008020","nombre":"Colón"},"municipio":{"id":"300007","nombre":"Colón"},"nombre":"Colón","provincia":{"id":"30","nombre":"Entre Ríos"}},{"categoria":"Localidad simple","centroide":{"lat":-32.2956986917188,"lon":-58.2337080676846},"departamento":{"id":"30008","nombre":"Colón"},"id":"30008030","localidad_censal":{"id":"30008030","nombre":"Colonia Hugues"},"municipio":{"id":"300007","nombre":"Colón"},"nombre":"Colonia Hugues","provincia":{"id":"30","nombre":"Entre Ríos"}},{"categoria":"Localidad simple","centroide":{"lat":-31.9636306181098,"lon":-58.5077297627347},"departamento":{"id":"30008","nombre":"Colón"},"id":"30008040","localidad_censal":{"id":"30008040","nombre":"Hambis"},"municipio":{"id":"309010","nombre":"Hambis"},"nombre":"Hambis","provincia":{"id":"30","nombre":"Entre Ríos"}},{"categoria":"Localidad simple","centroide":{"lat":-32.0883131178827,"lon":-58.3394885068103},"departamento":{"id":"30008","nombre":"Colón"},"id":"30008050","localidad_censal":{"id":"30008050","nombre":"Hocker"},"municipio":{"id":"309015","nombre":"Hocker"},"nombre":"Hocker","provincia":{"id":"30","nombre":"Entre Ríos"}},{"categoria":"Localidad simple","centroide":{"lat":-31.9757522344996,"lon":-58.3924313333867},"departamento":{"id":"30008","nombre":"Colón"},"id":"30008060","localidad_censal":{"id":"30008060","nombre":"La Clarita"},"municipio":{"id":"302035","nombre":"La Clarita"},"nombre":"La Clarita","provincia":{"id":"30","nombre":"Entre Ríos"}},{"categoria":"Localidad simple","centroide":{"lat":-32.0031495857066,"lon":-58.4907942685898},"departamento":{"id":"30008","nombre":"Colón"},"id":"30008070","localidad_censal":{"id":"30008070","nombre":"Pueblo Cazes"},"municipio":{"id":"302042","nombre":"Pueblo Cazes"},"nombre":"Pueblo Cazes","provincia":{"id":"30","nombre":"Entre Ríos"}},{"categoria":"Localidad simple","centroide":{"lat":-32.1541902049407,"lon":-58.1920788918591},"departamento":{"id":"30008","nombre":"Colón"},"id":"30008080","localidad_censal":{"id":"30008080","nombre":"Pueblo Liebig"},"municipio":{"id":"309030","nombre":"Pueblo Liebig"},"nombre":"Pueblo Liebig's","provincia":{"id":"30","nombre":"Entre Ríos"}},{"categoria":"Localidad simple","centroide":{"lat":-32.2077188328206,"lon":-58.2187989413511},"departamento":{"id":"30008","nombre":"Colón"},"id":"30008090","localidad_censal":{"id":"30008090","nombre":"San José"},"municipio":{"id":"300014","nombre":"San José"},"nombre":"San José","provincia":{"id":"30","nombre":"Entre Ríos"}},{"categoria":"Localidad simple","centroide":{"lat":-31.7951778227254,"lon":-58.3150653208058},"departamento":{"id":"30008","nombre":"Colón"},"id":"30008100","localidad_censal":{"id":"30008100","nombre":"Ubajay"},"municipio":{"id":"300021","nombre":"Ubajay"},"nombre":"Ubajay","provincia":{"id":"30","nombre":"Entre Ríos"}},{"categoria":"Localidad simple","centroide":{"lat":-32.1632187428976,"lon":-58.4005315762751},"departamento":{"id":"30008","nombre":"Colón"},"id":"30008110","localidad_censal":{"id":"30008110","nombre":"Villa Elisa"},"municipio":{"id":"300028","nombre":"Villa Elisa"},"nombre":"Villa Elisa","provincia":{"id":"30","nombre":"Entre Ríos"}},{"categoria":"Localidad simple","centroide":{"lat":-31.5070034244042,"lon":-58.1330469846132},"departamento":{"id":"30015","nombre":"Concordia"},"id":"30015010","localidad_censal":{"id":"30015010","nombre":"Calabacilla"},"municipio":{"id":"300049","nombre":"Estancia Grande"},"nombre":"Calabacilla","provincia":{"id":"30","nombre":"Entre Ríos"}},{"categoria":"Localidad simple","centroide":{"lat":-31.5766676930595,"lon":-58.1803339151731},"departamento":{"id":"30015","nombre":"Concordia"},"id":"30015020","localidad_censal":{"id":"30015020","nombre":"Clodomiro Ledesma"},"municipio":{"id":"309035","nombre":"Clodomiro Ledesma"},"nombre":"Clodomiro Ledesma","provincia":{"id":"30","nombre":"Entre Ríos"}},{"categoria":"Localidad simple","centroide":{"lat":-31.2077200710886,"lon":-58.0312441498482},"departamento":{"id":"30015","nombre":"Concordia"},"id":"30015030","localidad_censal":{"id":"30015030","nombre":"Colonia Ayuí"},"municipio":{"id":"300035","nombre":"Colonia Ayuí"},"nombre":"Colonia Ayuí","provincia":{"id":"30","nombre":"Entre Ríos"}},{"categoria":"Localidad simple","centroide":{"lat":-31.3508509297983,"lon":-58.0850767832094},"departamento":{"id":"30015","nombre":"Concordia"},"id":"30015040","localidad_censal":{"id":"30015040","nombre":"Colonia General Roca"},"municipio":{"id":"302077","nombre":"General Roca"},"nombre":"Colonia General Roca","provincia":{"id":"30","nombre":"Entre Ríos"}},{"categoria":"Localidad simple","centroide":{"lat":-31.3919648167661,"lon":-58.0170077848337},"departamento":{"id":"30015","nombre":"Concordia"},"id":"30015060","localidad_censal":{"id":"30015060","nombre":"Concordia"},"municipio":{"id":"300042","nombre":"Concordia"},"nombre":"Concordia","provincia":{"id":"30","nombre":"Entre Ríos"}},{"categoria":"Localidad simple","centroide":{"lat":-31.471106728684,"lon":-58.2633298098291},"departamento":{"id":"30015","nombre":"Concordia"},"id":"30015080","localidad_censal":{"id":"30015080","nombre":"Estación Yeruá"},"municipio":{"id":"309050","nombre":"Estación Yeruá"},"nombre":"Estación Yeruá","provincia":{"id":"30","nombre":"Entre Ríos"}},{"categoria":"Localidad simple","centroide":{"lat":-31.398216856989,"lon":-58.1624358668396},"departamento":{"id":"30015","nombre":"Concordia"},"id":"30015083","localidad_censal":{"id":"30015083","nombre":"Estacion Yuquerí"},"municipio":{"id":"309055","nombre":"Estación Yuquerí"},"nombre":"Estación Yuquerí","provincia":{"id":"30","nombre":"Entre Ríos"}},{"categoria":"Localidad simple","centroide":{"lat":-31.4391670544258,"lon":-58.1195702445376},"departamento":{"id":"30015","nombre":"Concordia"},"id":"30015087","localidad_censal":{"id":"30015087","nombre":"Estancia Grande"},"municipio":{"id":"300049","nombre":"Estancia Grande"},"nombre":"Estancia Grande","provincia":{"id":"30","nombre":"Entre Ríos"}},{"categoria":"Localidad simple","centroide":{"lat":-31.2691133910253,"lon":-58.1088277324905},"departamento":{"id":"30015","nombre":"Concordia"},"id":"30015090","localidad_censal":{"id":"30015090","nombre":"La Criolla"},"municipio":{"id":"300056","nombre":"La Criolla"},"nombre":"La Criolla","provincia":{"id":"30","nombre":"Entre Ríos"}},{"categoria":"Localidad simple","centroide":{"lat":-31.1694300520192,"lon":-58.1855405012526},"departamento":{"id":"30015","nombre":"Concordia"},"id":"30015100","localidad_censal":{"id":"30015100","nombre":"Los Charrúas"},"municipio":{"id":"300063","nombre":"Los Charrúas"},"nombre":"Los Charrúas","provincia":{"id":"30","nombre":"Entre Ríos"}},{"categoria":"Localidad simple","centroide":{"lat":-31.6496165324376,"lon":-58.0163356827209},"departamento":{"id":"30015","nombre":"Concordia"},"id":"30015110","localidad_censal":{"id":"30015110","nombre":"Nueva Escocia"},"municipio":{"id":"302084","nombre":"Nueva Escocia"},"nombre":"Nueva Escocia","provincia":{"id":"30","nombre":"Entre Ríos"}},{"categoria":"Localidad simple","centroide":{"lat":-31.3131029387782,"lon":-58.0593224688058},"departamento":{"id":"30015","nombre":"Concordia"},"id":"30015120","localidad_censal":{"id":"30015120","nombre":"Osvaldo Magnasco"},"municipio":{"id":"300042","nombre":"Concordia"},"nombre":"Osvaldo Magnasco","provincia":{"id":"30","nombre":"Entre Ríos"}},{"categoria":"Localidad simple","centroide":{"lat":-31.6719730693954,"lon":-58.2305813565411},"departamento":{"id":"30015","nombre":"Concordia"},"id":"30015130","localidad_censal":{"id":"30015130","nombre":"Pedernal"},"municipio":{"id":"302091","nombre":"Pedernal"},"nombre":"Pedernal","provincia":{"id":"30","nombre":"Entre Ríos"}},{"categoria":"Localidad simple","centroide":{"lat":-31.5313584976824,"lon":-58.0151827052007},"departamento":{"id":"30015","nombre":"Concordia"},"id":"30015140","localidad_censal":{"id":"30015140","nombre":"Puerto Yeruá"},"municipio":{"id":"300070","nombre":"Puerto Yeruá"},"nombre":"Puerto Yeruá","provincia":{"id":"30","nombre":"Entre Ríos"}},{"categoria":"Localidad simple","centroide":{"lat":-31.8898331706717,"lon":-60.5907932653543},"departamento":{"id":"30021","nombre":"Diamante"},"id":"30021010","localidad_censal":{"id":"30021010","nombre":"Aldea Brasilera"},"municipio":{"id":"309075","nombre":"Aldea Brasilera"},"nombre":"Aldea Brasilera","provincia":{"id":"30","nombre":"Entre Ríos"}},{"categoria":"Localidad simple","centroide":{"lat":-31.9605187678945,"lon":-60.4989837531202},"departamento":{"id":"30021","nombre":"Diamante"},"id":"30021015","localidad_censal":{"id":"30021015","nombre":"Aldea Grapschental"},"municipio":{"id":"309080","nombre":"Aldea Grapschental"},"nombre":"Aldea Grapschental","provincia":{"id":"30","nombre":"Entre Ríos"}},{"categoria":"Localidad simple","centroide":{"lat":-32.0293027894612,"lon":-60.5618081310949},"departamento":{"id":"30021","nombre":"Diamante"},"id":"30021020","localidad_censal":{"id":"30021020","nombre":"Aldea Protestante"},"municipio":{"id":"302112","nombre":"Aldea Protestante"},"nombre":"Aldea Protestante","provincia":{"id":"30","nombre":"Entre Ríos"}},{"categoria":"Localidad simple","centroide":{"lat":-31.9248332176685,"lon":-60.5473518905461},"departamento":{"id":"30021","nombre":"Diamante"},"id":"30021030","localidad_censal":{"id":"30021030","nombre":"Aldea Salto"},"municipio":{"id":"309090","nombre":"Aldea Salto"},"nombre":"Aldea Salto","provincia":{"id":"30","nombre":"Entre Ríos"}},{"categoria":"Localidad simple","centroide":{"lat":-31.9612266672352,"lon":-60.6352599381601},"departamento":{"id":"30021","nombre":"Diamante"},"id":"30021040","localidad_censal":{"id":"30021040","nombre":"Aldea San Francisco"},"municipio":{"id":"309120","nombre":"General Alvear"},"nombre":"Aldea San Francisco","provincia":{"id":"30","nombre":"Entre Ríos"}},{"categoria":"Localidad simple","centroide":{"lat":-31.9461790345738,"lon":-60.5808627344469},"departamento":{"id":"30021","nombre":"Diamante"},"id":"30021050","localidad_censal":{"id":"30021050","nombre":"Aldea Spatzenkutter"},"municipio":{"id":"302126","nombre":"Aldea Spatzenkutter"},"nombre":"Aldea Spatzenkutter","provincia":{"id":"30","nombre":"Entre Ríos"}},{"categoria":"Localidad simple","centroide":{"lat":-31.9900923662644,"lon":-60.5877262313482},"departamento":{"id":"30021","nombre":"Diamante"},"id":"30021060","localidad_censal":{"id":"30021060","nombre":"Aldea Valle María"},"municipio":{"id":"300077","nombre":"Aldea Valle María"},"nombre":"Aldea Valle María","provincia":{"id":"30","nombre":"Entre Ríos"}},{"categoria":"Localidad simple","centroide":{"lat":-31.8651881704182,"lon":-60.5746902491132},"departamento":{"id":"30021","nombre":"Diamante"},"id":"30021070","localidad_censal":{"id":"30021070","nombre":"Colonia Ensayo"},"municipio":{"id":"302133","nombre":"Colonia Ensayo"},"nombre":"Colonia Ensayo","provincia":{"id":"30","nombre":"Entre Ríos"}},{"categoria":"Localidad simple","centroide":{"lat":-32.0707572517765,"lon":-60.6382083360621},"departamento":{"id":"30021","nombre":"Diamante"},"id":"30021080","localidad_censal":{"id":"30021080","nombre":"Diamante"},"municipio":{"id":"300084","nombre":"Diamante"},"nombre":"Diamante","provincia":{"id":"30","nombre":"Entre Ríos"}},{"categoria":"Localidad simple","centroide":{"lat":-32.1125162364785,"lon":-60.2272889217605},"departamento":{"id":"30021","nombre":"Diamante"},"id":"30021090","localidad_censal":{"id":"30021090","nombre":"Estación Camps"},"municipio":{"id":"309110","nombre":"Estación Camps"},"nombre":"Estación Camps","provincia":{"id":"30","nombre":"Entre Ríos"}},{"categoria":"Localidad simple","centroide":{"lat":-31.9455148849987,"lon":-60.680121897539},"departamento":{"id":"30021","nombre":"Diamante"},"id":"30021100","localidad_censal":{"id":"30021100","nombre":"General Alvear"},"municipio":{"id":"309120","nombre":"General Alvear"},"nombre":"General Alvear","provincia":{"id":"30","nombre":"Entre Ríos"}},{"categoria":"Localidad simple","centroide":{"lat":-31.9791490506092,"lon":-60.4056663272969},"departamento":{"id":"30021","nombre":"Diamante"},"id":"30021110","localidad_censal":{"id":"30021110","nombre":"Gobernador Racedo"},"municipio":{"id":"302161","nombre":"Gobernador Racedo"},"nombre":"General Racedo (El Carmen)","provincia":{"id":"30","nombre":"Entre Ríos"}},{"categoria":"Localidad simple","centroide":{"lat":-32.1772681367295,"lon":-60.2016467358906},"departamento":{"id":"30021","nombre":"Diamante"},"id":"30021120","localidad_censal":{"id":"30021120","nombre":"General Ramírez"},"municipio":{"id":"300091","nombre":"General Ramírez"},"nombre":"General Ramírez","provincia":{"id":"30","nombre":"Entre Ríos"}},{"categoria":"Localidad simple","centroide":{"lat":-31.8750484074246,"lon":-60.6489560785938},"departamento":{"id":"30021","nombre":"Diamante"},"id":"30021123","localidad_censal":{"id":"30021123","nombre":"La Juanita"},"municipio":{"id":"302133","nombre":"Colonia Ensayo"},"nombre":"La Juanita","provincia":{"id":"30","nombre":"Entre Ríos"}},{"categoria":"Localidad simple","centroide":{"lat":-31.8270433777202,"lon":-60.6053181395704},"departamento":{"id":"30021","nombre":"Diamante"},"id":"30021127","localidad_censal":{"id":"30021127","nombre":"Las Jaulas"},"municipio":{"id":"302133","nombre":"Colonia Ensayo"},"nombre":"Las Jaulas","provincia":{"id":"30","nombre":"Entre Ríos"}},{"categoria":"Localidad simple","centroide":{"lat":-31.9166385582342,"lon":-60.6536092352755},"departamento":{"id":"30021","nombre":"Diamante"},"id":"30021130","localidad_censal":{"id":"30021130","nombre":"Paraje La Virgen"},"municipio":{"id":"309075","nombre":"Aldea Brasilera"},"nombre":"Paraje La Virgen","provincia":{"id":"30","nombre":"Entre Ríos"}},{"categoria":"Localidad simple","centroide":{"lat":-32.3287076899508,"lon":-60.4865011802982},"departamento":{"id":"30021","nombre":"Diamante"},"id":"30021140","localidad_censal":{"id":"30021140","nombre":"Puerto Las Cuevas"},"municipio":{"id":"302175","nombre":"Las Cuevas"},"nombre":"Puerto Las Cuevas","provincia":{"id":"30","nombre":"Entre Ríos"}},{"categoria":"Localidad simple","centroide":{"lat":-32.0734421833662,"lon":-60.4659165217568},"departamento":{"id":"30021","nombre":"Diamante"},"id":"30021150","localidad_censal":{"id":"30021150","nombre":"Villa Libertador San Martín"},"municipio":{"id":"300098","nombre":"Villa Libertador San Martín"},"nombre":"Villa Libertador San Martín","provincia":{"id":"30","nombre":"Entre Ríos"}},{"categoria":"Localidad simple","centroide":{"lat":-30.7547242034728,"lon":-57.9817893682594},"departamento":{"id":"30028","nombre":"Federación"},"id":"30028010","localidad_censal":{"id":"30028010","nombre":"Chajarí"},"municipio":{"id":"300105","nombre":"Chajarí"},"nombre":"Chajarí","provincia":{"id":"30","nombre":"Entre Ríos"}},{"categoria":"Localidad simple","centroide":{"lat":-30.9035950691115,"lon":-57.9998943396245},"departamento":{"id":"30028","nombre":"Federación"},"id":"30028020","localidad_censal":{"id":"30028020","nombre":"Colonia Alemana"},"municipio":{"id":"309135","nombre":"Colonia Alemana"},"nombre":"Colonia Alemana","provincia":{"id":"30","nombre":"Entre Ríos"}},{"categoria":"Localidad simple","centroide":{"lat":-31.0740770229662,"lon":-58.0260216531353},"departamento":{"id":"30028","nombre":"Federación"},"id":"30028040","localidad_censal":{"id":"30028040","nombre":"Colonia La Argentina"},"municipio":{"id":"309140","nombre":"Colonia La Argentina"},"nombre":"Colonia La Argentina","provincia":{"id":"30","nombre":"Entre Ríos"}},{"categoria":"Localidad simple","centroide":{"lat":-30.9902627352677,"lon":-57.9177623238373},"departamento":{"id":"30028","nombre":"Federación"},"id":"30028070","localidad_censal":{"id":"30028070","nombre":"Federación"},"municipio":{"id":"300112","nombre":"Federación"},"nombre":"Federación","provincia":{"id":"30","nombre":"Entre Ríos"}},{"categoria":"Localidad simple","centroide":{"lat":-30.5913371447286,"lon":-58.4662357090178},"departamento":{"id":"30028","nombre":"Federación"},"id":"30028080","localidad_censal":{"id":"30028080","nombre":"Los Conquistadores"},"municipio":{"id":"300115","nombre":"Los Conquistadores"},"nombre":"Los Conquistadores","provincia":{"id":"30","nombre":"Entre Ríos"}},{"categoria":"Localidad simple","centroide":{"lat":-30.3403401359976,"lon":-58.3069291581191},"departamento":{"id":"30028","nombre":"Federación"},"id":"30028090","localidad_censal":{"id":"30028090","nombre":"San Jaime de la Frontera"},"municipio":{"id":"300119","nombre":"San Jaime de la Frontera"},"nombre":"San Jaime de la Frontera","provincia":{"id":"30","nombre":"Entre Ríos"}},{"categoria":"Localidad simple","centroide":{"lat":-30.7581957780129,"lon":-58.0815900082746},"departamento":{"id":"30028","nombre":"Federación"},"id":"30028100","localidad_censal":{"id":"30028100","nombre":"San Pedro"},"municipio":{"id":"309175","nombre":"San Pedro"},"nombre":"San Pedro","provincia":{"id":"30","nombre":"Entre Ríos"}},{"categoria":"Localidad simple","centroide":{"lat":-30.8188156466658,"lon":-58.2497947667639},"departamento":{"id":"30028","nombre":"Federación"},"id":"30028105","localidad_censal":{"id":"30028105","nombre":"San Ramón"},"municipio":{"id":"309180","nombre":"San Ramón"},"nombre":"San Ramón","provincia":{"id":"30","nombre":"Entre Ríos"}},{"categoria":"Localidad simple","centroide":{"lat":-30.8993700235864,"lon":-57.9310782503744},"departamento":{"id":"30028","nombre":"Federación"},"id":"30028110","localidad_censal":{"id":"30028110","nombre":"Santa Ana"},"municipio":{"id":"300126","nombre":"Santa Ana"},"nombre":"Santa Ana","provincia":{"id":"30","nombre":"Entre Ríos"}},{"categoria":"Localidad simple","centroide":{"lat":-30.7957385008307,"lon":-57.9145527100309},"departamento":{"id":"30028","nombre":"Federación"},"id":"30028120","localidad_censal":{"id":"30028120","nombre":"Villa del Rosario"},"municipio":{"id":"300133","nombre":"Villa del Rosario"},"nombre":"Villa del Rosario","provincia":{"id":"30","nombre":"Entre Ríos"}},{"categoria":"Localidad simple","centroide":{"lat":-31.0462438153575,"lon":-59.0867226661372},"departamento":{"id":"30035","nombre":"Federal"},"id":"30035010","localidad_censal":{"id":"30035010","nombre":"Conscripto Bernardi"},"municipio":{"id":"300140","nombre":"Conscripto Bernardi"},"nombre":"Conscripto Bernardi","provincia":{"id":"30","nombre":"Entre Ríos"}},{"categoria":"Localidad simple","centroide":{"lat":-30.9741023051628,"lon":-58.9964135435597},"departamento":{"id":"30035","nombre":"Federal"},"id":"30035020","localidad_censal":{"id":"30035020","nombre":"El Cimarrón"},"municipio":{"id":"302287","nombre":"El Cimarrón"},"nombre":"Aldea San Isidro (El Cimarrón)","provincia":{"id":"30","nombre":"Entre Ríos"}},{"categoria":"Localidad simple","centroide":{"lat":-30.9562142806914,"lon":-58.7795875052823},"departamento":{"id":"30035","nombre":"Federal"},"id":"30035030","localidad_censal":{"id":"30035030","nombre":"Federal"},"municipio":{"id":"300147","nombre":"Federal"},"nombre":"Federal","provincia":{"id":"30","nombre":"Entre Ríos"}},{"categoria":"Localidad simple","centroide":{"lat":-30.9685140319756,"lon":-58.6127493441519},"departamento":{"id":"30035","nombre":"Federal"},"id":"30035040","localidad_censal":{"id":"30035040","nombre":"Nueva Vizcaya"},"municipio":{"id":"302308","nombre":"Nueva Vizcaya"},"nombre":"Nueva Vizcaya","provincia":{"id":"30","nombre":"Entre Ríos"}},{"categoria":"Localidad simple","centroide":{"lat":-31.2395232659228,"lon":-59.2173710836707},"departamento":{"id":"30035","nombre":"Federal"},"id":"30035050","localidad_censal":{"id":"30035050","nombre":"Sauce de Luna"},"municipio":{"id":"300154","nombre":"Sauce de Luna"},"nombre":"Sauce de Luna","provincia":{"id":"30","nombre":"Entre Ríos"}},{"categoria":"Localidad simple","centroide":{"lat":-30.3854437363788,"lon":-58.7502572752322},"departamento":{"id":"30042","nombre":"Feliciano"},"id":"30042010","localidad_censal":{"id":"30042010","nombre":"San José de Feliciano"},"municipio":{"id":"300161","nombre":"San José de Feliciano"},"nombre":"San José de Feliciano","provincia":{"id":"30","nombre":"Entre Ríos"}},{"categoria":"Localidad simple","centroide":{"lat":-30.4851899621348,"lon":-59.0283413798032},"departamento":{"id":"30042","nombre":"Feliciano"},"id":"30042020","localidad_censal":{"id":"30042020","nombre":"San Víctor"},"municipio":{"id":"302376","nombre":"San Víctor"},"nombre":"San Víctor","provincia":{"id":"30","nombre":"Entre Ríos"}},{"categoria":"Localidad simple","centroide":{"lat":-33.4357740479997,"lon":-59.0688572962096},"departamento":{"id":"30063","nombre":"Islas del Ibicuy"},"id":"30063040","localidad_censal":{"id":"30063040","nombre":"Médanos"},"municipio":{"id":"309405","nombre":"Médanos"},"nombre":"Médanos","provincia":{"id":"30","nombre":"Entre Ríos"}},{"categoria":"Localidad simple","centroide":{"lat":-32.8247091104656,"lon":-59.2391181528493},"departamento":{"id":"30049","nombre":"Gualeguay"},"id":"30049010","localidad_censal":{"id":"30049010","nombre":"Aldea Asunción"},"municipio":{"id":"302383","nombre":"Aldea Asunción"},"nombre":"Aldea Asunción","provincia":{"id":"30","nombre":"Entre Ríos"}},{"categoria":"Localidad simple","centroide":{"lat":-32.8708132401108,"lon":-59.4223303691248},"departamento":{"id":"30049","nombre":"Gualeguay"},"id":"30049020","localidad_censal":{"id":"30049020","nombre":"Estación Lazo"},"municipio":{"id":"309295","nombre":"Estación Lazo"},"nombre":"Estación Lazo","provincia":{"id":"30","nombre":"Entre Ríos"}},{"categoria":"Localidad simple","centroide":{"lat":-32.7204846633082,"lon":-59.3957065604885},"departamento":{"id":"30049","nombre":"Gualeguay"},"id":"30049030","localidad_censal":{"id":"30049030","nombre":"General Galarza"},"municipio":{"id":"300168","nombre":"General Galarza"},"nombre":"General Galarza","provincia":{"id":"30","nombre":"Entre Ríos"}},{"categoria":"Localidad simple","centroide":{"lat":-33.1504300803974,"lon":-59.3105755860058},"departamento":{"id":"30049","nombre":"Gualeguay"},"id":"30049040","localidad_censal":{"id":"30049040","nombre":"Gualeguay"},"municipio":{"id":"300175","nombre":"Gualeguay"},"nombre":"Gualeguay","provincia":{"id":"30","nombre":"Entre Ríos"}},{"categoria":"Localidad simple","centroide":{"lat":-33.2218241731748,"lon":-59.3654648895633},"departamento":{"id":"30049","nombre":"Gualeguay"},"id":"30049050","localidad_censal":{"id":"30049050","nombre":"Puerto Ruiz"},"municipio":{"id":"300175","nombre":"Gualeguay"},"nombre":"Puerto Ruiz","provincia":{"id":"30","nombre":"Entre Ríos"}},{"categoria":"Localidad simple","centroide":{"lat":-32.6251747263965,"lon":-58.7044236395354},"departamento":{"id":"30056","nombre":"Gualeguaychú"},"id":"30056010","localidad_censal":{"id":"30056010","nombre":"Aldea San Antonio"},"municipio":{"id":"300182","nombre":"Aldea San Antonio"},"nombre":"Aldea San Antonio","provincia":{"id":"30","nombre":"Entre Ríos"}},{"categoria":"Localidad simple","centroide":{"lat":-32.6959583134931,"lon":-58.7717519658529},"departamento":{"id":"30056","nombre":"Gualeguaychú"},"id":"30056020","localidad_censal":{"id":"30056020","nombre":"Aldea San Juan"},"municipio":{"id":"302453","nombre":"Aldea San Juan"},"nombre":"Aldea San Juan","provincia":{"id":"30","nombre":"Entre Ríos"}},{"categoria":"Localidad simple","centroide":{"lat":-33.1454610724344,"lon":-59.20805582252},"departamento":{"id":"30056","nombre":"Gualeguaychú"},"id":"30056030","localidad_censal":{"id":"30056030","nombre":"Enrique Carbó"},"municipio":{"id":"300184","nombre":"Enrique Carbó"},"nombre":"Enrique Carbó","provincia":{"id":"30","nombre":"Entre Ríos"}},{"categoria":"Localidad simple","centroide":{"lat":-32.5921302043254,"lon":-58.9059282838468},"departamento":{"id":"30056","nombre":"Gualeguaychú"},"id":"30056035","localidad_censal":{"id":"30056035","nombre":"Estación Escriña"},"municipio":{"id":"309355","nombre":"Estación Escriña"},"nombre":"Estación Escriña","provincia":{"id":"30","nombre":"Entre Ríos"}},{"categoria":"Localidad simple","centroide":{"lat":-32.804430236216,"lon":-58.8826336786977},"departamento":{"id":"30056","nombre":"Gualeguaychú"},"id":"30056040","localidad_censal":{"id":"30056040","nombre":"Estación Parera"},"municipio":{"id":"302512","nombre":"Estación Parera"},"nombre":"Faustino M. Parera","provincia":{"id":"30","nombre":"Entre Ríos"}},{"categoria":"Localidad simple","centroide":{"lat":-32.8373889903269,"lon":-58.8026489744221},"departamento":{"id":"30056","nombre":"Gualeguaychú"},"id":"30056050","localidad_censal":{"id":"30056050","nombre":"General Almada"},"municipio":{"id":"309365","nombre":"General Almada"},"nombre":"General Almada","provincia":{"id":"30","nombre":"Entre Ríos"}},{"categoria":"Localidad simple","centroide":{"lat":-32.5358321663809,"lon":-58.9340099890289},"departamento":{"id":"30056","nombre":"Gualeguaychú"},"id":"30056060","localidad_censal":{"id":"30056060","nombre":"Gilbert"},"municipio":{"id":"300185","nombre":"Gilbert"},"nombre":"Gilbert","provincia":{"id":"30","nombre":"Entre Ríos"}},{"categoria":"Componente de localidad compuesta","centroide":{"lat":-33.0077976973495,"lon":-58.5107700863228},"departamento":{"id":"30056","nombre":"Gualeguaychú"},"id":"30056070","localidad_censal":{"id":"30056070","nombre":"Gualeguaychú"},"municipio":{"id":"300189","nombre":"San José de Gualeguaychú"},"nombre":"Gualeguaychú","provincia":{"id":"30","nombre":"Entre Ríos"}},{"categoria":"Localidad simple","centroide":{"lat":-32.9258653202157,"lon":-58.9496485138064},"departamento":{"id":"30056","nombre":"Gualeguaychú"},"id":"30056080","localidad_censal":{"id":"30056080","nombre":"Irazusta"},"municipio":{"id":"302526","nombre":"Irazusta"},"nombre":"Irazusta","provincia":{"id":"30","nombre":"Entre Ríos"}},{"categoria":"Localidad simple","centroide":{"lat":-33.0365215310336,"lon":-58.9990862025396},"departamento":{"id":"30056","nombre":"Gualeguaychú"},"id":"30056090","localidad_censal":{"id":"30056090","nombre":"Larroque"},"municipio":{"id":"300196","nombre":"Larroque"},"nombre":"Larroque","provincia":{"id":"30","nombre":"Entre Ríos"}},{"categoria":"Localidad simple","centroide":{"lat":-32.7702371034464,"lon":-58.9062943843502},"departamento":{"id":"30056","nombre":"Gualeguaychú"},"id":"30056095","localidad_censal":{"id":"30056095","nombre":"Pastor Britos"},"municipio":{"id":"302512","nombre":"Estación Parera"},"nombre":"Pastor Britos","provincia":{"id":"30","nombre":"Entre Ríos"}},{"categoria":"Componente de localidad compuesta","centroide":{"lat":-33.0173732799664,"lon":-58.475033211034},"departamento":{"id":"30056","nombre":"Gualeguaychú"},"id":"30056100","localidad_censal":{"id":"30056100","nombre":"Pueblo General Belgrano"},"municipio":{"id":"300199","nombre":"Pueblo General Belgrano"},"nombre":"Pueblo General Belgrano","provincia":{"id":"30","nombre":"Entre Ríos"}},{"categoria":"Localidad simple","centroide":{"lat":-32.6910460992997,"lon":-58.8884200764691},"departamento":{"id":"30056","nombre":"Gualeguaychú"},"id":"30056110","localidad_censal":{"id":"30056110","nombre":"Urdinarrain"},"municipio":{"id":"300203","nombre":"Urdinarrain"},"nombre":"Urdinarrain","provincia":{"id":"30","nombre":"Entre Ríos"}},{"categoria":"Localidad simple","centroide":{"lat":-33.4994143415822,"lon":-58.8003552616562},"departamento":{"id":"30063","nombre":"Islas del Ibicuy"},"id":"30063020","localidad_censal":{"id":"30063020","nombre":"Ceibas"},"municipio":{"id":"300210","nombre":"Ceibas"},"nombre":"Ceibas","provincia":{"id":"30","nombre":"Entre Ríos"}},{"categoria":"Localidad simple","centroide":{"lat":-33.742476857164,"lon":-59.157590207736},"departamento":{"id":"30063","nombre":"Islas del Ibicuy"},"id":"30063030","localidad_censal":{"id":"30063030","nombre":"Ibicuy"},"municipio":{"id":"300217","nombre":"Ibicuy"},"nombre":"Ibicuy","provincia":{"id":"30","nombre":"Entre Ríos"}},{"categoria":"Localidad simple","centroide":{"lat":-33.7156034771624,"lon":-58.6652644995763},"departamento":{"id":"30063","nombre":"Islas del Ibicuy"},"id":"30063060","localidad_censal":{"id":"30063060","nombre":"Villa Paranacito"},"municipio":{"id":"300224","nombre":"Villa Paranacito"},"nombre":"Villa Paranacito","provincia":{"id":"30","nombre":"Entre Ríos"}},{"categoria":"Localidad simple","centroide":{"lat":-31.4573653455777,"lon":-59.5985723120056},"departamento":{"id":"30070","nombre":"La Paz"},"id":"30070005","localidad_censal":{"id":"30070005","nombre":"Alcaraz"},"municipio":{"id":"300231","nombre":"Alcaraz"},"nombre":"Alcaraz","provincia":{"id":"30","nombre":"Entre Ríos"}},{"categoria":"Localidad simple","centroide":{"lat":-31.343579683492,"lon":-59.4463897661907},"departamento":{"id":"30070","nombre":"La Paz"},"id":"30070010","localidad_censal":{"id":"30070010","nombre":"Bovril"},"municipio":{"id":"300238","nombre":"Bovril"},"nombre":"Bovril","provincia":{"id":"30","nombre":"Entre Ríos"}},{"categoria":"Localidad simple","centroide":{"lat":-31.183195499668,"lon":-59.4082372809929},"departamento":{"id":"30070","nombre":"La Paz"},"id":"30070020","localidad_censal":{"id":"30070020","nombre":"Colonia Avigdor"},"municipio":{"id":"302596","nombre":"Colonia Avigdor"},"nombre":"Colonia Avigdor","provincia":{"id":"30","nombre":"Entre Ríos"}},{"categoria":"Localidad simple","centroide":{"lat":-31.1795440846043,"lon":-59.7331340626411},"departamento":{"id":"30070","nombre":"La Paz"},"id":"30070030","localidad_censal":{"id":"30070030","nombre":"El Solar"},"municipio":{"id":"302638","nombre":"El Solar"},"nombre":"El Solar","provincia":{"id":"30","nombre":"Entre Ríos"}},{"categoria":"Localidad simple","centroide":{"lat":-30.7404766242794,"lon":-59.6443012787354},"departamento":{"id":"30070","nombre":"La Paz"},"id":"30070040","localidad_censal":{"id":"30070040","nombre":"La Paz"},"municipio":{"id":"300245","nombre":"La Paz"},"nombre":"La Paz","provincia":{"id":"30","nombre":"Entre Ríos"}},{"categoria":"Localidad simple","centroide":{"lat":-31.1850061480935,"lon":-59.9499577135334},"departamento":{"id":"30070","nombre":"La Paz"},"id":"30070050","localidad_censal":{"id":"30070050","nombre":"Piedras Blancas"},"municipio":{"id":"300252","nombre":"Piedras Blancas"},"nombre":"Piedras Blancas","provincia":{"id":"30","nombre":"Entre Ríos"}},{"categoria":"Localidad simple","centroide":{"lat":-30.6902877479076,"lon":-59.3949842943142},"departamento":{"id":"30070","nombre":"La Paz"},"id":"30070070","localidad_censal":{"id":"30070070","nombre":"San Gustavo"},"municipio":{"id":"300255","nombre":"San Gustavo"},"nombre":"San Gustavo","provincia":{"id":"30","nombre":"Entre Ríos"}},{"categoria":"Localidad simple","centroide":{"lat":-30.9444600016756,"lon":-59.7891212913891},"departamento":{"id":"30070","nombre":"La Paz"},"id":"30070080","localidad_censal":{"id":"30070080","nombre":"Santa Elena"},"municipio":{"id":"300259","nombre":"Santa Elena"},"nombre":"Santa Elena","provincia":{"id":"30","nombre":"Entre Ríos"}},{"categoria":"Localidad simple","centroide":{"lat":-31.3889211506789,"lon":-59.5010619355657},"departamento":{"id":"30070","nombre":"La Paz"},"id":"30070090","localidad_censal":{"id":"30070090","nombre":"Sir Leonard"},"municipio":{"id":"309500","nombre":"Sir Leonard"},"nombre":"Sir Leonard","provincia":{"id":"30","nombre":"Entre Ríos"}},{"categoria":"Localidad simple","centroide":{"lat":-32.2457755164885,"lon":-60.1583505738708},"departamento":{"id":"30077","nombre":"Nogoyá"},"id":"30077010","localidad_censal":{"id":"30077010","nombre":"Villa Aranguren"},"municipio":{"id":"300266","nombre":"Villa Aranguren"},"nombre":"Aranguren","provincia":{"id":"30","nombre":"Entre Ríos"}},{"categoria":"Localidad simple","centroide":{"lat":-32.3721797633805,"lon":-59.9284078342041},"departamento":{"id":"30077","nombre":"Nogoyá"},"id":"30077020","localidad_censal":{"id":"30077020","nombre":"Betbeder"},"municipio":{"id":null,"nombre":null},"nombre":"Betbeder","provincia":{"id":"30","nombre":"Entre Ríos"}},{"categoria":"Localidad simple","centroide":{"lat":-32.0713541870669,"lon":-59.9947309809541},"departamento":{"id":"30077","nombre":"Nogoyá"},"id":"30077030","localidad_censal":{"id":"30077030","nombre":"Don Cristóbal II"},"municipio":{"id":"302780","nombre":"Don Cristóbal II"},"nombre":"Don Cristóbal","provincia":{"id":"30","nombre":"Entre Ríos"}},{"categoria":"Localidad simple","centroide":{"lat":-32.475267674938,"lon":-59.9189010779794},"departamento":{"id":"30077","nombre":"Nogoyá"},"id":"30077040","localidad_censal":{"id":"30077040","nombre":"Febré"},"municipio":{"id":"302787","nombre":"Febre"},"nombre":"Febré","provincia":{"id":"30","nombre":"Entre Ríos"}},{"categoria":"Localidad simple","centroide":{"lat":-32.3382714166742,"lon":-60.0321261187869},"departamento":{"id":"30077","nombre":"Nogoyá"},"id":"30077050","localidad_censal":{"id":"30077050","nombre":"Villa Sabá Z. Hernández"},"municipio":{"id":"300273","nombre":"Villa Sabá Z. Hernández"},"nombre":"Hernández","provincia":{"id":"30","nombre":"Entre Ríos"}},{"categoria":"Localidad simple","centroide":{"lat":-32.3843937289654,"lon":-59.5308470434542},"departamento":{"id":"30077","nombre":"Nogoyá"},"id":"30077060","localidad_censal":{"id":"30077060","nombre":"Lucas González"},"municipio":{"id":"300280","nombre":"Lucas González"},"nombre":"Lucas González","provincia":{"id":"30","nombre":"Entre Ríos"}},{"categoria":"Localidad simple","centroide":{"lat":-32.3989615251678,"lon":-59.787695341605},"departamento":{"id":"30077","nombre":"Nogoyá"},"id":"30077070","localidad_censal":{"id":"30077070","nombre":"Nogoyá"},"municipio":{"id":"300287","nombre":"Nogoyá"},"nombre":"Nogoyá","provincia":{"id":"30","nombre":"Entre Ríos"}},{"categoria":"Localidad simple","centroide":{"lat":-32.3859188275714,"lon":-59.662220630427},"departamento":{"id":"30077","nombre":"Nogoyá"},"id":"30077080","localidad_censal":{"id":"30077080","nombre":"XX de Setiembre"},"municipio":{"id":"302808","nombre":"XX de Septiembre"},"nombre":"XX de Setiembre","provincia":{"id":"30","nombre":"Entre Ríos"}},{"categoria":"Localidad simple","centroide":{"lat":-31.8838516983236,"lon":-60.4105063277925},"departamento":{"id":"30084","nombre":"Paraná"},"id":"30084010","localidad_censal":{"id":"30084010","nombre":"Aldea María Luisa"},"municipio":{"id":"309580","nombre":"Maria Luisa"},"nombre":"Aldea María Luisa","provincia":{"id":"30","nombre":"Entre Ríos"}},{"categoria":"Localidad simple","centroide":{"lat":-31.9967195611947,"lon":-60.3581603581635},"departamento":{"id":"30084","nombre":"Paraná"},"id":"30084015","localidad_censal":{"id":"30084015","nombre":"Aldea San Juan"},"municipio":{"id":"300301","nombre":"Crespo"},"nombre":"Aldea San Juan","provincia":{"id":"30","nombre":"Entre Ríos"}},{"categoria":"Localidad simple","centroide":{"lat":-31.957411232207,"lon":-60.2546306448179},"departamento":{"id":"30084","nombre":"Paraná"},"id":"30084020","localidad_censal":{"id":"30084020","nombre":"Aldea San Rafael"},"municipio":{"id":"309590","nombre":"Aldea San Rafael"},"nombre":"Aldea San Rafael","provincia":{"id":"30","nombre":"Entre Ríos"}},{"categoria":"Localidad simple","centroide":{"lat":-31.6113329912328,"lon":-60.0068869508086},"departamento":{"id":"30084","nombre":"Paraná"},"id":"30084030","localidad_censal":{"id":"30084030","nombre":"Aldea Santa María"},"municipio":{"id":"302836","nombre":"Aldea Santa María"},"nombre":"Aldea Santa María","provincia":{"id":"30","nombre":"Entre Ríos"}},{"categoria":"Localidad simple","centroide":{"lat":-32.0131601160492,"lon":-60.2392099527139},"departamento":{"id":"30084","nombre":"Paraná"},"id":"30084040","localidad_censal":{"id":"30084040","nombre":"Aldea Santa Rosa"},"municipio":{"id":"302843","nombre":"Aldea Santa Rosa"},"nombre":"Aldea Santa Rosa","provincia":{"id":"30","nombre":"Entre Ríos"}},{"categoria":"Localidad simple","centroide":{"lat":-31.5799390266432,"lon":-60.0755467034037},"departamento":{"id":"30084","nombre":"Paraná"},"id":"30084050","localidad_censal":{"id":"30084050","nombre":"Cerrito"},"municipio":{"id":"300294","nombre":"Cerrito"},"nombre":"Cerrito","provincia":{"id":"30","nombre":"Entre Ríos"}},{"categoria":"Componente de localidad compuesta","centroide":{"lat":-31.7626492941623,"lon":-60.411981206375},"departamento":{"id":"30084","nombre":"Paraná"},"id":"30084060","localidad_censal":{"id":"30084060","nombre":"Colonia Avellaneda"},"municipio":{"id":"300297","nombre":"Colonia Avellaneda"},"nombre":"Colonia Avellaneda","provincia":{"id":"30","nombre":"Entre Ríos"}},{"categoria":"Localidad simple","centroide":{"lat":-31.68288121994,"lon":-60.2310818879375},"departamento":{"id":"30084","nombre":"Paraná"},"id":"30084065","localidad_censal":{"id":"30084065","nombre":"Colonia Crespo"},"municipio":{"id":"302899","nombre":"Colonia Crespo"},"nombre":"Colonia Crespo","provincia":{"id":"30","nombre":"Entre Ríos"}},{"categoria":"Localidad simple","centroide":{"lat":-32.0307595065229,"lon":-60.3060920490641},"departamento":{"id":"30084","nombre":"Paraná"},"id":"30084070","localidad_censal":{"id":"30084070","nombre":"Crespo"},"municipio":{"id":"300301","nombre":"Crespo"},"nombre":"Crespo","provincia":{"id":"30","nombre":"Entre Ríos"}},{"categoria":"Localidad simple","centroide":{"lat":-31.6537567407046,"lon":-60.1666164581891},"departamento":{"id":"30084","nombre":"Paraná"},"id":"30084080","localidad_censal":{"id":"30084080","nombre":"El Palenque"},"municipio":{"id":"302927","nombre":"El Palenque"},"nombre":"El Palenque","provincia":{"id":"30","nombre":"Entre Ríos"}},{"categoria":"Localidad simple","centroide":{"lat":-31.5829676043156,"lon":-59.8908482978195},"departamento":{"id":"30084","nombre":"Paraná"},"id":"30084090","localidad_censal":{"id":"30084090","nombre":"El Pingo"},"municipio":{"id":"309680","nombre":"El Pingo"},"nombre":"El Pingo","provincia":{"id":"30","nombre":"Entre Ríos"}},{"categoria":"Localidad simple","centroide":{"lat":-31.8468764834646,"lon":-60.1012521230134},"departamento":{"id":"30084","nombre":"Paraná"},"id":"30084095","localidad_censal":{"id":"30084095","nombre":"El Ramblón"},"municipio":{"id":"309730","nombre":"Quebracho"},"nombre":"El Ramblón","provincia":{"id":"30","nombre":"Entre Ríos"}},{"categoria":"Localidad simple","centroide":{"lat":-31.5121688745034,"lon":-59.8352827889199},"departamento":{"id":"30084","nombre":"Paraná"},"id":"30084100","localidad_censal":{"id":"30084100","nombre":"Hasenkamp"},"municipio":{"id":"300308","nombre":"Hasenkamp"},"nombre":"Hasenkamp","provincia":{"id":"30","nombre":"Entre Ríos"}},{"categoria":"Localidad simple","centroide":{"lat":-31.2300082476583,"lon":-59.9882864462032},"departamento":{"id":"30084","nombre":"Paraná"},"id":"30084110","localidad_censal":{"id":"30084110","nombre":"Hernandarias"},"municipio":{"id":"300315","nombre":"Hernandarias"},"nombre":"Hernandarias","provincia":{"id":"30","nombre":"Entre Ríos"}},{"categoria":"Localidad simple","centroide":{"lat":-31.7250045287472,"lon":-60.2975491064565},"departamento":{"id":"30084","nombre":"Paraná"},"id":"30084120","localidad_censal":{"id":"30084120","nombre":"La Picada"},"municipio":{"id":"302955","nombre":"La Picada"},"nombre":"La Picada","provincia":{"id":"30","nombre":"Entre Ríos"}},{"categoria":"Localidad simple","centroide":{"lat":-31.8685965611317,"lon":-59.728864072529},"departamento":{"id":"30084","nombre":"Paraná"},"id":"30084130","localidad_censal":{"id":"30084130","nombre":"Paraje Las Tunas"},"municipio":{"id":"302976","nombre":"Paraje Las Tunas"},"nombre":"Las Tunas","provincia":{"id":"30","nombre":"Entre Ríos"}},{"categoria":"Localidad simple","centroide":{"lat":-31.6628074993378,"lon":-59.9040145960044},"departamento":{"id":"30084","nombre":"Paraná"},"id":"30084140","localidad_censal":{"id":"30084140","nombre":"María Grande"},"municipio":{"id":"300322","nombre":"María Grande"},"nombre":"María Grande","provincia":{"id":"30","nombre":"Entre Ríos"}},{"categoria":"Componente de localidad compuesta","centroide":{"lat":-31.8227547000767,"lon":-60.5175334301681},"departamento":{"id":"30084","nombre":"Paraná"},"id":"30084150","localidad_censal":{"id":"30084150","nombre":"Oro Verde"},"municipio":{"id":"300329","nombre":"Oro Verde"},"nombre":"Oro Verde","provincia":{"id":"30","nombre":"Entre Ríos"}},{"categoria":"Componente de localidad compuesta","centroide":{"lat":-31.7401601621031,"lon":-60.5274260494443},"departamento":{"id":"30084","nombre":"Paraná"},"id":"30084160","localidad_censal":{"id":"30084160","nombre":"Paraná"},"municipio":{"id":"300336","nombre":"Paraná"},"nombre":"Paraná","provincia":{"id":"30","nombre":"Entre Ríos"}},{"categoria":"Localidad simple","centroide":{"lat":-31.4274268735175,"lon":-59.7444932615042},"departamento":{"id":"30084","nombre":"Paraná"},"id":"30084170","localidad_censal":{"id":"30084170","nombre":"Las Garzas"},"municipio":{"id":"302962","nombre":"Las Garzas"},"nombre":"Pueblo Bellocq (Las Garzas)","provincia":{"id":"30","nombre":"Entre Ríos"}},{"categoria":"Localidad simple","centroide":{"lat":-31.3873290930984,"lon":-60.0918141248688},"departamento":{"id":"30084","nombre":"Paraná"},"id":"30084180","localidad_censal":{"id":"30084180","nombre":"Pueblo Brugo"},"municipio":{"id":"309720","nombre":"Pueblo Brugo"},"nombre":"Pueblo Brugo","provincia":{"id":"30","nombre":"Entre Ríos"}},{"categoria":"Localidad simple","centroide":{"lat":-31.4583608740821,"lon":-60.1690524560952},"departamento":{"id":"30084","nombre":"Paraná"},"id":"30084190","localidad_censal":{"id":"30084190","nombre":"Puerto Curtiembre"},"municipio":{"id":"302999","nombre":"Puerto Curtiembre"},"nombre":"Pueblo General San Martín","provincia":{"id":"30","nombre":"Entre Ríos"}},{"categoria":"Componente de localidad compuesta","centroide":{"lat":-31.7830223392508,"lon":-60.4414593119117},"departamento":{"id":"30084","nombre":"Paraná"},"id":"30084200","localidad_censal":{"id":"30084200","nombre":"San Benito"},"municipio":{"id":"300343","nombre":"San Benito"},"nombre":"San Benito","provincia":{"id":"30","nombre":"Entre Ríos"}},{"categoria":"Componente de localidad compuesta","centroide":{"lat":-31.7448088128617,"lon":-60.3557573370731},"departamento":{"id":"30084","nombre":"Paraná"},"id":"30084210","localidad_censal":{"id":"30084210","nombre":"Sauce Montrull"},"municipio":{"id":"303020","nombre":"Sauce Montrull"},"nombre":"Sauce Montrull","provincia":{"id":"30","nombre":"Entre Ríos"}},{"categoria":"Localidad simple","centroide":{"lat":-31.8430823355075,"lon":-60.3716007205911},"departamento":{"id":"30084","nombre":"Paraná"},"id":"30084220","localidad_censal":{"id":"30084220","nombre":"Sauce Pinto"},"municipio":{"id":"303027","nombre":"Sauce Pinto"},"nombre":"Sauce Pinto","provincia":{"id":"30","nombre":"Entre Ríos"}},{"categoria":"Localidad simple","centroide":{"lat":-31.9543397722153,"lon":-60.1256505518592},"departamento":{"id":"30084","nombre":"Paraná"},"id":"30084230","localidad_censal":{"id":"30084230","nombre":"Seguí"},"municipio":{"id":"300350","nombre":"Seguí"},"nombre":"Seguí","provincia":{"id":"30","nombre":"Entre Ríos"}},{"categoria":"Localidad simple","centroide":{"lat":-31.7362332979389,"lon":-59.9111358895149},"departamento":{"id":"30084","nombre":"Paraná"},"id":"30084240","localidad_censal":{"id":"30084240","nombre":"Estación Sosa"},"municipio":{"id":"302941","nombre":"Estación Sosa"},"nombre":"Sosa","provincia":{"id":"30","nombre":"Entre Ríos"}},{"categoria":"Localidad simple","centroide":{"lat":-31.8016595891036,"lon":-59.935952939523},"departamento":{"id":"30084","nombre":"Paraná"},"id":"30084250","localidad_censal":{"id":"30084250","nombre":"Tabossi"},"municipio":{"id":"300357","nombre":"Tabossi"},"nombre":"Tabossi","provincia":{"id":"30","nombre":"Entre Ríos"}},{"categoria":"Localidad simple","centroide":{"lat":-31.8716985985524,"lon":-60.494414737347},"departamento":{"id":"30084","nombre":"Paraná"},"id":"30084260","localidad_censal":{"id":"30084260","nombre":"Tezanos Pinto"},"municipio":{"id":"303034","nombre":"Tezanos Pinto"},"nombre":"Tezanos Pinto","provincia":{"id":"30","nombre":"Entre Ríos"}},{"categoria":"Localidad simple","centroide":{"lat":-31.8721090330188,"lon":-60.0129512483241},"departamento":{"id":"30084","nombre":"Paraná"},"id":"30084270","localidad_censal":{"id":"30084270","nombre":"Viale"},"municipio":{"id":"300364","nombre":"Viale"},"nombre":"Viale","provincia":{"id":"30","nombre":"Entre Ríos"}},{"categoria":"Localidad simple","centroide":{"lat":-31.9053433169782,"lon":-60.4736941547727},"departamento":{"id":"30084","nombre":"Paraná"},"id":"30084280","localidad_censal":{"id":"30084280","nombre":"Villa Fontana"},"municipio":{"id":"303041","nombre":"Villa Fontana"},"nombre":"Villa Fontana","provincia":{"id":"30","nombre":"Entre Ríos"}},{"categoria":"Localidad simple","centroide":{"lat":-31.9350699101389,"lon":-60.4271676606855},"departamento":{"id":"30084","nombre":"Paraná"},"id":"30084290","localidad_censal":{"id":"30084290","nombre":"Gobernador Etchevehere"},"municipio":{"id":"302948","nombre":"Gobernador Etchevehere"},"nombre":"Villa Gdor. Luis F. Etchevehere","provincia":{"id":"30","nombre":"Entre Ríos"}},{"categoria":"Localidad simple","centroide":{"lat":-31.6495212087066,"lon":-60.3768959087163},"departamento":{"id":"30084","nombre":"Paraná"},"id":"30084300","localidad_censal":{"id":"30084300","nombre":"Villa Urquiza"},"municipio":{"id":"300371","nombre":"Villa Urquiza"},"nombre":"Villa Urquiza","provincia":{"id":"30","nombre":"Entre Ríos"}},{"categoria":"Localidad simple","centroide":{"lat":-31.5233761986049,"lon":-58.4058045394824},"departamento":{"id":"30088","nombre":"San Salvador"},"id":"30088010","localidad_censal":{"id":"30088010","nombre":"General Campos"},"municipio":{"id":"300378","nombre":"General Campos"},"nombre":"General Campos","provincia":{"id":"30","nombre":"Entre Ríos"}},{"categoria":"Localidad simple","centroide":{"lat":-31.6249608786519,"lon":-58.5050320059527},"departamento":{"id":"30088","nombre":"San Salvador"},"id":"30088020","localidad_censal":{"id":"30088020","nombre":"San Salvador"},"municipio":{"id":"300385","nombre":"San Salvador"},"nombre":"San Salvador","provincia":{"id":"30","nombre":"Entre Ríos"}},{"categoria":"Localidad simple","centroide":{"lat":-32.0877800983375,"lon":-59.1747316014494},"departamento":{"id":"30091","nombre":"Tala"},"id":"30091010","localidad_censal":{"id":"30091010","nombre":"Altamirano Sur"},"municipio":{"id":"309790","nombre":"Altamirano Sur"},"nombre":"Altamirano Sur","provincia":{"id":"30","nombre":"Entre Ríos"}},{"categoria":"Localidad simple","centroide":{"lat":-31.9858807820586,"lon":-59.2792940251352},"departamento":{"id":"30091","nombre":"Tala"},"id":"30091020","localidad_censal":{"id":"30091020","nombre":"Durazno"},"municipio":{"id":"303091","nombre":"Durazno"},"nombre":"Durazno","provincia":{"id":"30","nombre":"Entre Ríos"}},{"categoria":"Localidad simple","centroide":{"lat":-32.6350310386839,"lon":-59.4015034243036},"departamento":{"id":"30091","nombre":"Tala"},"id":"30091030","localidad_censal":{"id":"30091030","nombre":"Arroyo Clé"},"municipio":{"id":"309795","nombre":"Arroyo Cle"},"nombre":"Estación Arroyo Clé","provincia":{"id":"30","nombre":"Entre Ríos"}},{"categoria":"Localidad simple","centroide":{"lat":-32.3933721966686,"lon":-59.2758896426831},"departamento":{"id":"30091","nombre":"Tala"},"id":"30091040","localidad_censal":{"id":"30091040","nombre":"Gobernador Echagüe"},"municipio":{"id":"303098","nombre":"Gobernador Echagüe"},"nombre":"Gobernador Echagüe","provincia":{"id":"30","nombre":"Entre Ríos"}},{"categoria":"Localidad simple","centroide":{"lat":-32.5454358721796,"lon":-59.3566188061038},"departamento":{"id":"30091","nombre":"Tala"},"id":"30091050","localidad_censal":{"id":"30091050","nombre":"Gobernador Mansilla"},"municipio":{"id":"300392","nombre":"Gobernador Mansilla"},"nombre":"Gobernador Mansilla","provincia":{"id":"30","nombre":"Entre Ríos"}},{"categoria":"Localidad simple","centroide":{"lat":-32.336522574321,"lon":-59.3727853441384},"departamento":{"id":"30091","nombre":"Tala"},"id":"30091060","localidad_censal":{"id":"30091060","nombre":"Gobernador Sola"},"municipio":{"id":"303112","nombre":"Gobernador Sola"},"nombre":"Gobernador Solá","provincia":{"id":"30","nombre":"Entre Ríos"}},{"categoria":"Localidad simple","centroide":{"lat":-32.0811453250374,"lon":-59.3059536407295},"departamento":{"id":"30091","nombre":"Tala"},"id":"30091070","localidad_censal":{"id":"30091070","nombre":"Guardamonte"},"municipio":{"id":"303119","nombre":"Guardamonte"},"nombre":"Guardamonte","provincia":{"id":"30","nombre":"Entre Ríos"}},{"categoria":"Localidad simple","centroide":{"lat":-32.4702188089563,"lon":-59.1729259161367},"departamento":{"id":"30091","nombre":"Tala"},"id":"30091080","localidad_censal":{"id":"30091080","nombre":"Las Guachas"},"municipio":{"id":"309825","nombre":"Las Guachas"},"nombre":"Las Guachas","provincia":{"id":"30","nombre":"Entre Ríos"}},{"categoria":"Localidad simple","centroide":{"lat":-32.1746842191822,"lon":-59.3979704528443},"departamento":{"id":"30091","nombre":"Tala"},"id":"30091090","localidad_censal":{"id":"30091090","nombre":"Maciá"},"municipio":{"id":"300399","nombre":"Maciá"},"nombre":"Maciá","provincia":{"id":"30","nombre":"Entre Ríos"}},{"categoria":"Localidad simple","centroide":{"lat":-32.3006755060116,"lon":-59.1390668036666},"departamento":{"id":"30091","nombre":"Tala"},"id":"30091100","localidad_censal":{"id":"30091100","nombre":"Rosario del Tala"},"municipio":{"id":"300406","nombre":"Rosario del Tala"},"nombre":"Rosario del Tala","provincia":{"id":"30","nombre":"Entre Ríos"}},{"categoria":"Localidad simple","centroide":{"lat":-32.37215997874,"lon":-58.8786718167317},"departamento":{"id":"30098","nombre":"Uruguay"},"id":"30098010","localidad_censal":{"id":"30098010","nombre":"Basavilbaso"},"municipio":{"id":"300413","nombre":"Basavilbaso"},"nombre":"Basavilbaso","provincia":{"id":"30","nombre":"Entre Ríos"}},{"categoria":"Localidad simple","centroide":{"lat":-32.4621188922836,"lon":-58.4793213231488},"departamento":{"id":"30098","nombre":"Uruguay"},"id":"30098020","localidad_censal":{"id":"30098020","nombre":"Caseros"},"municipio":{"id":"300420","nombre":"Caseros"},"nombre":"Caseros","provincia":{"id":"30","nombre":"Entre Ríos"}},{"categoria":"Localidad simple","centroide":{"lat":-32.6704033344325,"lon":-58.3253513587223},"departamento":{"id":"30098","nombre":"Uruguay"},"id":"30098030","localidad_censal":{"id":"30098030","nombre":"Colonia Elía"},"municipio":{"id":"300423","nombre":"Colonia Elía"},"nombre":"Colonia Elía","provincia":{"id":"30","nombre":"Entre Ríos"}},{"categoria":"Localidad simple","centroide":{"lat":-32.4846612655344,"lon":-58.2321207793941},"departamento":{"id":"30098","nombre":"Uruguay"},"id":"30098040","localidad_censal":{"id":"30098040","nombre":"Concepción del Uruguay"},"municipio":{"id":"300427","nombre":"Concepción del Uruguay"},"nombre":"Concepción del Uruguay","provincia":{"id":"30","nombre":"Entre Ríos"}},{"categoria":"Localidad simple","centroide":{"lat":-32.4337844748277,"lon":-58.6346532355727},"departamento":{"id":"30098","nombre":"Uruguay"},"id":"30098060","localidad_censal":{"id":"30098060","nombre":"Herrera"},"municipio":{"id":"300434","nombre":"Herrera"},"nombre":"Herrera","provincia":{"id":"30","nombre":"Entre Ríos"}},{"categoria":"Localidad simple","centroide":{"lat":-32.0921032659486,"lon":-58.9575146484023},"departamento":{"id":"30098","nombre":"Uruguay"},"id":"30098070","localidad_censal":{"id":"30098070","nombre":"Las Moscas"},"municipio":{"id":"303161","nombre":"Las Moscas"},"nombre":"Las Moscas","provincia":{"id":"30","nombre":"Entre Ríos"}},{"categoria":"Localidad simple","centroide":{"lat":-32.2618954398159,"lon":-58.9069528897268},"departamento":{"id":"30098","nombre":"Uruguay"},"id":"30098080","localidad_censal":{"id":"30098080","nombre":"Líbaros"},"municipio":{"id":"303168","nombre":"Líbaros"},"nombre":"Líbaros","provincia":{"id":"30","nombre":"Entre Ríos"}},{"categoria":"Localidad simple","centroide":{"lat":-32.2553731709224,"lon":-58.4226001926306},"departamento":{"id":"30098","nombre":"Uruguay"},"id":"30098090","localidad_censal":{"id":"30098090","nombre":"1º de Mayo"},"municipio":{"id":"300437","nombre":"1º de Mayo"},"nombre":"1º de Mayo","provincia":{"id":"30","nombre":"Entre Ríos"}},{"categoria":"Localidad simple","centroide":{"lat":-32.3460070616066,"lon":-58.4441779122741},"departamento":{"id":"30098","nombre":"Uruguay"},"id":"30098100","localidad_censal":{"id":"30098100","nombre":"Pronunciamiento"},"municipio":{"id":"300441","nombre":"Pronunciamiento"},"nombre":"Pronunciamiento","provincia":{"id":"30","nombre":"Entre Ríos"}},{"categoria":"Localidad simple","centroide":{"lat":-32.3446636290147,"lon":-58.9730096688976},"departamento":{"id":"30098","nombre":"Uruguay"},"id":"30098110","localidad_censal":{"id":"30098110","nombre":"Rocamora"},"municipio":{"id":"303175","nombre":"Rocamora"},"nombre":"Rocamora","provincia":{"id":"30","nombre":"Entre Ríos"}},{"categoria":"Localidad simple","centroide":{"lat":-32.1744166184824,"lon":-58.7859758644397},"departamento":{"id":"30098","nombre":"Uruguay"},"id":"30098120","localidad_censal":{"id":"30098120","nombre":"Santa Anita"},"municipio":{"id":"300455","nombre":"Santa Anita"},"nombre":"Santa Anita","provincia":{"id":"30","nombre":"Entre Ríos"}},{"categoria":"Localidad simple","centroide":{"lat":-32.398361829393,"lon":-58.7460186949763},"departamento":{"id":"30098","nombre":"Uruguay"},"id":"30098130","localidad_censal":{"id":"30098130","nombre":"Villa Mantero"},"municipio":{"id":"300462","nombre":"Villa Mantero"},"nombre":"Villa Mantero","provincia":{"id":"30","nombre":"Entre Ríos"}},{"categoria":"Localidad simple","centroide":{"lat":-32.4456044548761,"lon":-58.4354297687235},"departamento":{"id":"30098","nombre":"Uruguay"},"id":"30098140","localidad_censal":{"id":"30098140","nombre":"San Justo"},"municipio":{"id":"300448","nombre":"San Justo"},"nombre":"Villa San Justo","provincia":{"id":"30","nombre":"Entre Ríos"}},{"categoria":"Localidad simple","centroide":{"lat":-32.1800689137102,"lon":-58.9285380838471},"departamento":{"id":"30098","nombre":"Uruguay"},"id":"30098150","localidad_censal":{"id":"30098150","nombre":"San Marcial"},"municipio":{"id":"303189","nombre":"San Marcial"},"nombre":"Villa San Marcial (Est. Gobernador Urquiza)","provincia":{"id":"30","nombre":"Entre Ríos"}},{"categoria":"Localidad simple","centroide":{"lat":-32.5335417495954,"lon":-60.0354527750223},"departamento":{"id":"30105","nombre":"Victoria"},"id":"30105010","localidad_censal":{"id":"30105010","nombre":"Antelo"},"municipio":{"id":"303196","nombre":"Antelo"},"nombre":"Antelo","provincia":{"id":"30","nombre":"Entre Ríos"}},{"categoria":"Localidad simple","centroide":{"lat":-32.3068249744527,"lon":-60.423089442856},"departamento":{"id":"30105","nombre":"Victoria"},"id":"30105040","localidad_censal":{"id":"30105040","nombre":"Molino Doll"},"municipio":{"id":null,"nombre":null},"nombre":"Molino Doll","provincia":{"id":"30","nombre":"Entre Ríos"}},{"categoria":"Localidad simple","centroide":{"lat":-32.6216058234351,"lon":-60.1579539516715},"departamento":{"id":"30105","nombre":"Victoria"},"id":"30105060","localidad_censal":{"id":"30105060","nombre":"Victoria"},"municipio":{"id":"300469","nombre":"Victoria"},"nombre":"Victoria","provincia":{"id":"30","nombre":"Entre Ríos"}},{"categoria":"Localidad simple","centroide":{"lat":-31.908551726803,"lon":-59.2612327187785},"departamento":{"id":"30113","nombre":"Villaguay"},"id":"30113010","localidad_censal":{"id":"30113010","nombre":"Estación Raíces"},"municipio":{"id":"309920","nombre":"Estación Raíces"},"nombre":"Estación Raíces","provincia":{"id":"30","nombre":"Entre Ríos"}},{"categoria":"Localidad simple","centroide":{"lat":-31.9568859928899,"lon":-58.8494887790939},"departamento":{"id":"30113","nombre":"Villaguay"},"id":"30113020","localidad_censal":{"id":"30113020","nombre":"Ingeniero Sajaroff"},"municipio":{"id":"303273","nombre":"Ingeniero Sajaroff"},"nombre":"Ingeniero Miguel Sajaroff","provincia":{"id":"30","nombre":"Entre Ríos"}},{"categoria":"Localidad simple","centroide":{"lat":-31.7312076592228,"lon":-58.6357175685439},"departamento":{"id":"30113","nombre":"Villaguay"},"id":"30113030","localidad_censal":{"id":"30113030","nombre":"Jubileo"},"municipio":{"id":"303280","nombre":"Jubileo"},"nombre":"Jubileo","provincia":{"id":"30","nombre":"Entre Ríos"}},{"categoria":"Localidad simple","centroide":{"lat":-31.8035204523501,"lon":-59.159807934769},"departamento":{"id":"30113","nombre":"Villaguay"},"id":"30113050","localidad_censal":{"id":"30113050","nombre":"Paso de la Laguna"},"municipio":{"id":"303329","nombre":"Paso de La Laguna"},"nombre":"Paso de la Laguna","provincia":{"id":"30","nombre":"Entre Ríos"}},{"categoria":"Localidad simple","centroide":{"lat":-31.8297990342603,"lon":-58.8216098979307},"departamento":{"id":"30113","nombre":"Villaguay"},"id":"30113060","localidad_censal":{"id":"30113060","nombre":"Villa Clara"},"municipio":{"id":"300476","nombre":"Villa Clara"},"nombre":"Villa Clara","provincia":{"id":"30","nombre":"Entre Ríos"}},{"categoria":"Localidad simple","centroide":{"lat":-31.9862888949547,"lon":-58.9615328469183},"departamento":{"id":"30113","nombre":"Villaguay"},"id":"30113070","localidad_censal":{"id":"30113070","nombre":"Villa Domínguez"},"municipio":{"id":"300483","nombre":"Villa Domínguez"},"nombre":"Villa Domínguez","provincia":{"id":"30","nombre":"Entre Ríos"}},{"categoria":"Localidad simple","centroide":{"lat":-31.8676375710354,"lon":-59.0268852125777},"departamento":{"id":"30113","nombre":"Villaguay"},"id":"30113080","localidad_censal":{"id":"30113080","nombre":"Villaguay"},"municipio":{"id":"300490","nombre":"Villaguay"},"nombre":"Villaguay","provincia":{"id":"30","nombre":"Entre Ríos"}}],"parametros":{"max":999,"provincia":"entre"},"total":182}
