{"cantidad":91,"inicio":0,"localidades":[{"categoria":"Localidad simple","centroide":{"lat":-26.6003305862167,"lon":-60.9461769608855},"departamento":{"id":"22007","nombre":"Almirante Brown"},"id":"22007010","localidad_censal":{"id":"22007010","nombre":"Concepción del Bermejo"},"municipio":{"id":"220007","nombre":"Concepción del Bermejo"},"nombre":"Concepción del Bermejo","provincia":{"id":"22","nombre":"Chaco"}},{"categoria":"Localidad simple","centroide":{"lat":-26.4070680088246,"lon":-61.412880578572},"departamento":{"id":"22007","nombre":"Almirante Brown"},"id":"22007020","localidad_censal":{"id":"22007020","nombre":"Los Frentones"},"municipio":{"id":"220014","nombre":"Los Frentones"},"nombre":"Los Frentones","provincia":{"id":"22","nombre":"Chaco"}},{"categoria":"Localidad simple","centroide":{"lat":-26.5035583962904,"lon":-61.1765724474723},"departamento":{"id":"22007","nombre":"Almirante Brown"},"id":"22007030","localidad_censal":{"id":"22007030","nombre":"Pampa del Infierno"},"municipio":{"id":"220021","nombre":"Pampa del Infierno"},"nombre":"Pampa del Infierno","provincia":{"id":"22","nombre":"Chaco"}},{"categoria":"Localidad simple","centroide":{"lat":-26.3071261086056,"lon":-61.6557594353689},"departamento":{"id":"22007","nombre":"Almirante Brown"},"id":"22007040","localidad_censal":{"id":"22007040","nombre":"Río Muerto"},"municipio":{"id":"220014","nombre":"Los Frentones"},"nombre":"Río Muerto","provincia":{"id":"22","nombre":"Chaco"}},{"categoria":"Localidad simple","centroide":{"lat":-25.6150351299997,"lon":-63.2648575469479},"departamento":{"id":"22007","nombre":"Almirante Brown"},"id":"22007050","localidad_censal":{"id":"22007050","nombre":"Taco Pozo"},"municipio":{"id":"220028","nombre":"Taco Pozo"},"nombre":"Taco Pozo","provincia":{"id":"22","nombre":"Chaco"}},{"categoria":"Localidad simple","centroide":{"lat":-26.9379341575218,"lon":-58.6619702597662},"departamento":{"id":"22014","nombre":"Bermejo"},"id":"22014010","localidad_censal":{"id":"22014010","nombre":"General Vedia"},"municipio":{"id":"220035","nombre":"General Vedia"},"nombre":"General Vedia","provincia":{"id":"22","nombre":"Chaco"}},{"categoria":"Localidad simple","centroide":{"lat":-27.2914991170767,"lon":-58.6194294875231},"departamento":{"id":"22014","nombre":"Bermejo"},"id":"22014020","localidad_censal":{"id":"22014020","nombre":"Isla del Cerrito"},"municipio":{"id":"220042","nombre":"Isla del Cerrito"},"nombre":"Isla del Cerrito","provincia":{"id":"22","nombre":"Chaco"}},{"categoria":"Componente de localidad compuesta","centroide":{"lat":-27.0381487234311,"lon":-58.7072486236073},"departamento":{"id":"22014","nombre":"Bermejo"},"id":"22014030","localidad_censal":{"id":"22014030","nombre":"La Leonesa"},"municipio":{"id":"220049","nombre":"La Leonesa"},"nombre":"La Leonesa","provincia":{"id":"22","nombre":"Chaco"}},{"categoria":"Componente de localidad compuesta","centroide":{"lat":-27.048750965144,"lon":-58.6823960236933},"departamento":{"id":"22014","nombre":"Bermejo"},"id":"22014040","localidad_censal":{"id":"22014040","nombre":"Las Palmas"},"municipio":{"id":"220056","nombre":"Las Palmas"},"nombre":"Las Palmas","provincia":{"id":"22","nombre":"Chaco"}},{"categoria":"Localidad simple","centroide":{"lat":-26.9077863528558,"lon":-58.5417008445514},"departamento":{"id":"22014","nombre":"Bermejo"},"id":"22014050","localidad_censal":{"id":"22014050","nombre":"Puerto Bermejo Nuevo"},"municipio":{"id":"220063","nombre":"Puerto Bermejo"},"nombre":"Puerto Bermejo Nuevo","provincia":{"id":"22","nombre":"Chaco"}},{"categoria":"Localidad simple","centroide":{"lat":-26.9269363002325,"lon":-58.5091157065524},"departamento":{"id":"22014","nombre":"Bermejo"},"id":"22014060","localidad_censal":{"id":"22014060","nombre":"Puerto Bermejo Viejo"},"municipio":{"id":"220063","nombre":"Puerto Bermejo"},"nombre":"Puerto Bermejo Viejo","provincia":{"id":"22","nombre":"Chaco"}},{"categoria":"Localidad simple","centroide":{"lat":-26.6637000135185,"lon":-58.6323972254936},"departamento":{"id":"22014","nombre":"Bermejo"},"id":"22014070","localidad_censal":{"id":"22014070","nombre":"Puerto Eva Perón"},"municipio":{"id":"220070","nombre":"Puerto Eva Perón"},"nombre":"Puerto Eva Perón","provincia":{"id":"22","nombre":"Chaco"}},{"categoria":"Localidad simple","centroide":{"lat":-26.7909717754736,"lon":-60.4412483249411},"departamento":{"id":"22021","nombre":"Comandante Fernández"},"id":"22021010","localidad_censal":{"id":"22021010","nombre":"Presidencia Roque Sáenz Peña"},"municipio":{"id":"220077","nombre":"Presidencia Roque Sáenz Peña"},"nombre":"Presidencia Roque Sáenz Peña","provincia":{"id":"22","nombre":"Chaco"}},{"categoria":"Localidad simple","centroide":{"lat":-27.2179223027158,"lon":-61.1873479676585},"departamento":{"id":"22028","nombre":"Chacabuco"},"id":"22028010","localidad_censal":{"id":"22028010","nombre":"Charata"},"municipio":{"id":"220084","nombre":"Charata"},"nombre":"Charata","provincia":{"id":"22","nombre":"Chaco"}},{"categoria":"Localidad simple","centroide":{"lat":-27.487414446204,"lon":-61.6766967146157},"departamento":{"id":"22036","nombre":"12 de Octubre"},"id":"22036010","localidad_censal":{"id":"22036010","nombre":"Gancedo"},"municipio":{"id":"220091","nombre":"Gancedo"},"nombre":"Gancedo","provincia":{"id":"22","nombre":"Chaco"}},{"categoria":"Localidad simple","centroide":{"lat":-27.422571352861,"lon":-61.4761415092562},"departamento":{"id":"22036","nombre":"12 de Octubre"},"id":"22036020","localidad_censal":{"id":"22036020","nombre":"General Capdevila"},"municipio":{"id":"220098","nombre":"General Capdevila"},"nombre":"General Capdevila","provincia":{"id":"22","nombre":"Chaco"}},{"categoria":"Localidad simple","centroide":{"lat":-27.3253861556851,"lon":-61.2809982820843},"departamento":{"id":"22036","nombre":"12 de Octubre"},"id":"22036030","localidad_censal":{"id":"22036030","nombre":"General Pinedo"},"municipio":{"id":"220105","nombre":"General Pinedo"},"nombre":"General Pinedo","provincia":{"id":"22","nombre":"Chaco"}},{"categoria":"Localidad simple","centroide":{"lat":-27.4298125750248,"lon":-61.0170993552243},"departamento":{"id":"22036","nombre":"12 de Octubre"},"id":"22036040","localidad_censal":{"id":"22036040","nombre":"Mesón de Fierro"},"municipio":{"id":"220105","nombre":"General Pinedo"},"nombre":"Mesón de Fierro","provincia":{"id":"22","nombre":"Chaco"}},{"categoria":"Localidad simple","centroide":{"lat":-27.3946839706567,"lon":-61.1025627085806},"departamento":{"id":"22036","nombre":"12 de Octubre"},"id":"22036050","localidad_censal":{"id":"22036050","nombre":"Pampa Landriel"},"municipio":{"id":"220105","nombre":"General Pinedo"},"nombre":"Pampa Landriel","provincia":{"id":"22","nombre":"Chaco"}},{"categoria":"Localidad simple","centroide":{"lat":-27.6100163822701,"lon":-61.3442358577896},"departamento":{"id":"22039","nombre":"2 de Abril"},"id":"22039010","localidad_censal":{"id":"22039010","nombre":"Hermoso Campo"},"municipio":{"id":"220112","nombre":"Hermoso Campo"},"nombre":"Hermoso Campo","provincia":{"id":"22","nombre":"Chaco"}},{"categoria":"Localidad simple","centroide":{"lat":-27.4874319308341,"lon":-61.3244820037252},"departamento":{"id":"22039","nombre":"2 de Abril"},"id":"22039020","localidad_censal":{"id":"22039020","nombre":"Itín"},"municipio":{"id":"220112","nombre":"Hermoso Campo"},"nombre":"Itín","provincia":{"id":"22","nombre":"Chaco"}},{"categoria":"Localidad simple","centroide":{"lat":-27.9146445282621,"lon":-61.4013993128414},"departamento":{"id":"22043","nombre":"Fray Justo Santa María de Oro"},"id":"22043010","localidad_censal":{"id":"22043010","nombre":"Chorotis"},"municipio":{"id":"220119","nombre":"Chorotis"},"nombre":"Chorotis","provincia":{"id":"22","nombre":"Chaco"}},{"categoria":"Localidad simple","centroide":{"lat":-27.8316109768351,"lon":-61.1360003686102},"departamento":{"id":"22043","nombre":"Fray Justo Santa María de Oro"},"id":"22043020","localidad_censal":{"id":"22043020","nombre":"Santa Sylvina"},"municipio":{"id":"220126","nombre":"Santa Sylvina"},"nombre":"Santa Sylvina","provincia":{"id":"22","nombre":"Chaco"}},{"categoria":"Localidad simple","centroide":{"lat":-27.8163479454318,"lon":-61.3828840983219},"departamento":{"id":"22043","nombre":"Fray Justo Santa María de Oro"},"id":"22043030","localidad_censal":{"id":"22043030","nombre":"Venados Grandes"},"municipio":{"id":"220119","nombre":"Chorotis"},"nombre":"Venados Grandes","provincia":{"id":"22","nombre":"Chaco"}},{"categoria":"Localidad simple","centroide":{"lat":-26.9513065400359,"lon":-60.9703382686613},"departamento":{"id":"22049","nombre":"General Belgrano"},"id":"22049010","localidad_censal":{"id":"22049010","nombre":"Corzuela"},"municipio":{"id":"220133","nombre":"Corzuela"},"nombre":"Corzuela","provincia":{"id":"22","nombre":"Chaco"}},{"categoria":"Localidad simple","centroide":{"lat":-27.1053486152867,"lon":-59.4463769418997},"departamento":{"id":"22056","nombre":"General Donovan"},"id":"22056010","localidad_censal":{"id":"22056010","nombre":"La Escondida"},"municipio":{"id":"220140","nombre":"La Escondida"},"nombre":"La Escondida","provincia":{"id":"22","nombre":"Chaco"}},{"categoria":"Localidad simple","centroide":{"lat":-27.1304179902021,"lon":-59.3761983068578},"departamento":{"id":"22056","nombre":"General Donovan"},"id":"22056020","localidad_censal":{"id":"22056020","nombre":"La Verde"},"municipio":{"id":"220154","nombre":"La Verde"},"nombre":"La Verde","provincia":{"id":"22","nombre":"Chaco"}},{"categoria":"Localidad simple","centroide":{"lat":-27.1593324979119,"lon":-59.3854154416988},"departamento":{"id":"22056","nombre":"General Donovan"},"id":"22056030","localidad_censal":{"id":"22056030","nombre":"Lapachito"},"municipio":{"id":"220147","nombre":"Lapachito"},"nombre":"Lapachito","provincia":{"id":"22","nombre":"Chaco"}},{"categoria":"Localidad simple","centroide":{"lat":-27.2057849207571,"lon":-59.2870860955885},"departamento":{"id":"22056","nombre":"General Donovan"},"id":"22056040","localidad_censal":{"id":"22056040","nombre":"Makallé"},"municipio":{"id":"220161","nombre":"Makallé"},"nombre":"Makallé","provincia":{"id":"22","nombre":"Chaco"}},{"categoria":"Localidad simple","centroide":{"lat":-25.40879832111,"lon":-60.4477848678074},"departamento":{"id":"22063","nombre":"General Güemes"},"id":"22063010","localidad_censal":{"id":"22063010","nombre":"El Espinillo"},"municipio":{"id":"220203","nombre":"Villa Río Bermejito"},"nombre":"El Espinillo","provincia":{"id":"22","nombre":"Chaco"}},{"categoria":"Localidad simple","centroide":{"lat":-24.578514059593,"lon":-61.5349548136704},"departamento":{"id":"22063","nombre":"General Güemes"},"id":"22063020","localidad_censal":{"id":"22063020","nombre":"El Sauzal"},"municipio":{"id":"220168","nombre":"El Sauzalito"},"nombre":"El Sauzal","provincia":{"id":"22","nombre":"Chaco"}},{"categoria":"Localidad simple","centroide":{"lat":-24.4279728154751,"lon":-61.6832325195593},"departamento":{"id":"22063","nombre":"General Güemes"},"id":"22063030","localidad_censal":{"id":"22063030","nombre":"El Sauzalito"},"municipio":{"id":"220168","nombre":"El Sauzalito"},"nombre":"El Sauzalito","provincia":{"id":"22","nombre":"Chaco"}},{"categoria":"Localidad simple","centroide":{"lat":-25.7044902435211,"lon":-60.2014855458396},"departamento":{"id":"22063","nombre":"General Güemes"},"id":"22063040","localidad_censal":{"id":"22063040","nombre":"Fortín Lavalle"},"municipio":{"id":"220203","nombre":"Villa Río Bermejito"},"nombre":"Fortín Lavalle","provincia":{"id":"22","nombre":"Chaco"}},{"categoria":"Localidad simple","centroide":{"lat":-25.1605144175101,"lon":-61.8413720671087},"departamento":{"id":"22063","nombre":"General Güemes"},"id":"22063050","localidad_censal":{"id":"22063050","nombre":"Fuerte Esperanza"},"municipio":{"id":"220175","nombre":"Fuerte Esperanza"},"nombre":"Fuerte Esperanza","provincia":{"id":"22","nombre":"Chaco"}},{"categoria":"Localidad simple","centroide":{"lat":-25.9465789293466,"lon":-60.6200670449467},"departamento":{"id":"22063","nombre":"General Güemes"},"id":"22063060","localidad_censal":{"id":"22063060","nombre":"Juan José Castelli"},"municipio":{"id":"220182","nombre":"Juan José Castelli"},"nombre":"Juan José Castelli","provincia":{"id":"22","nombre":"Chaco"}},{"categoria":"Localidad simple","centroide":{"lat":-25.6494249777628,"lon":-60.9301874543371},"departamento":{"id":"22063","nombre":"General Güemes"},"id":"22063070","localidad_censal":{"id":"22063070","nombre":"Miraflores"},"municipio":{"id":"220189","nombre":"Miraflores"},"nombre":"Miraflores","provincia":{"id":"22","nombre":"Chaco"}},{"categoria":"Localidad simple","centroide":{"lat":-24.9330746180761,"lon":-61.483145172937},"departamento":{"id":"22063","nombre":"General Güemes"},"id":"22063080","localidad_censal":{"id":"22063080","nombre":"Nueva Pompeya"},"municipio":{"id":"220196","nombre":"Misión Nueva Pompeya"},"nombre":"Nueva Pompeya","provincia":{"id":"22","nombre":"Chaco"}},{"categoria":"Localidad simple","centroide":{"lat":-25.63755492601,"lon":-60.2654367699022},"departamento":{"id":"22063","nombre":"General Güemes"},"id":"22063100","localidad_censal":{"id":"22063100","nombre":"Villa Río Bermejito"},"municipio":{"id":"220203","nombre":"Villa Río Bermejito"},"nombre":"Villa Río Bermejito","provincia":{"id":"22","nombre":"Chaco"}},{"categoria":"Localidad simple","centroide":{"lat":-24.690329441955,"lon":-61.4261303376299},"departamento":{"id":"22063","nombre":"General Güemes"},"id":"22063110","localidad_censal":{"id":"22063110","nombre":"Wichi"},"municipio":{"id":"220168","nombre":"El Sauzalito"},"nombre":"Wichi","provincia":{"id":"22","nombre":"Chaco"}},{"categoria":"Localidad simple","centroide":{"lat":-26.0657920174407,"lon":-60.5619267013874},"departamento":{"id":"22063","nombre":"General Güemes"},"id":"22063120","localidad_censal":{"id":"22063120","nombre":"Zaparinqui"},"municipio":{"id":"220182","nombre":"Juan José Castelli"},"nombre":"Zaparinqui","provincia":{"id":"22","nombre":"Chaco"}},{"categoria":"Localidad simple","centroide":{"lat":-26.6866516745676,"lon":-60.7280308347642},"departamento":{"id":"22070","nombre":"Independencia"},"id":"22070010","localidad_censal":{"id":"22070010","nombre":"Avia Terai"},"municipio":{"id":"220210","nombre":"Avia Terai"},"nombre":"Avia Terai","provincia":{"id":"22","nombre":"Chaco"}},{"categoria":"Localidad simple","centroide":{"lat":-26.800310492313,"lon":-60.8390178666289},"departamento":{"id":"22070","nombre":"Independencia"},"id":"22070020","localidad_censal":{"id":"22070020","nombre":"Campo Largo"},"municipio":{"id":"220217","nombre":"Campo Largo"},"nombre":"Campo Largo","provincia":{"id":"22","nombre":"Chaco"}},{"categoria":"Localidad simple","centroide":{"lat":-26.8843533265014,"lon":-60.9095629682866},"departamento":{"id":"22070","nombre":"Independencia"},"id":"22070030","localidad_censal":{"id":"22070030","nombre":"Fortín Las Chuñas"},"municipio":{"id":"220217","nombre":"Campo Largo"},"nombre":"Fortín Las Chuñas","provincia":{"id":"22","nombre":"Chaco"}},{"categoria":"Localidad simple","centroide":{"lat":-26.7295871127198,"lon":-60.6167760570049},"departamento":{"id":"22070","nombre":"Independencia"},"id":"22070040","localidad_censal":{"id":"22070040","nombre":"Napenay"},"municipio":{"id":"220224","nombre":"Napenay"},"nombre":"Napenay","provincia":{"id":"22","nombre":"Chaco"}},{"categoria":"Localidad simple","centroide":{"lat":-27.2751918731914,"lon":-59.1514756922},"departamento":{"id":"22077","nombre":"Libertad"},"id":"22077010","localidad_censal":{"id":"22077010","nombre":"Colonia Popular"},"municipio":{"id":"220231","nombre":"Colonia Popular"},"nombre":"Colonia Popular","provincia":{"id":"22","nombre":"Chaco"}},{"categoria":"Localidad simple","centroide":{"lat":-27.4116262609828,"lon":-59.4193459037811},"departamento":{"id":"22077","nombre":"Libertad"},"id":"22077020","localidad_censal":{"id":"22077020","nombre":"Estación General Obligado"},"municipio":{"id":"220245","nombre":"Puerto Tirol"},"nombre":"Estación General Obligado","provincia":{"id":"22","nombre":"Chaco"}},{"categoria":"Localidad simple","centroide":{"lat":-27.2554304381034,"lon":-59.2330158035774},"departamento":{"id":"22077","nombre":"Libertad"},"id":"22077030","localidad_censal":{"id":"22077030","nombre":"Laguna Blanca"},"municipio":{"id":"220238","nombre":"Laguna Blanca"},"nombre":"Laguna Blanca","provincia":{"id":"22","nombre":"Chaco"}},{"categoria":"Localidad simple","centroide":{"lat":-27.3740411914358,"lon":-59.0892761648709},"departamento":{"id":"22077","nombre":"Libertad"},"id":"22077040","localidad_censal":{"id":"22077040","nombre":"Puerto Tirol"},"municipio":{"id":"220245","nombre":"Puerto Tirol"},"nombre":"Puerto Tirol","provincia":{"id":"22","nombre":"Chaco"}},{"categoria":"Localidad simple","centroide":{"lat":-26.5801424797738,"lon":-59.6300338022635},"departamento":{"id":"22084","nombre":"Libertador General San Martín"},"id":"22084010","localidad_censal":{"id":"22084010","nombre":"Ciervo Petiso"},"municipio":{"id":"220252","nombre":"Ciervo Petiso"},"nombre":"Ciervo Petiso","provincia":{"id":"22","nombre":"Chaco"}},{"categoria":"Localidad simple","centroide":{"lat":-26.5363023600367,"lon":-59.341321005154},"departamento":{"id":"22084","nombre":"Libertador General San Martín"},"id":"22084020","localidad_censal":{"id":"22084020","nombre":"General José de San Martín"},"municipio":{"id":"220259","nombre":"General San Martín"},"nombre":"General José de San Martín","provincia":{"id":"22","nombre":"Chaco"}},{"categoria":"Localidad simple","centroide":{"lat":-26.8364618120738,"lon":-59.0623206203105},"departamento":{"id":"22084","nombre":"Libertador General San Martín"},"id":"22084030","localidad_censal":{"id":"22084030","nombre":"La Eduvigis"},"municipio":{"id":"220266","nombre":"La Eduvigis"},"nombre":"La Eduvigis","provincia":{"id":"22","nombre":"Chaco"}},{"categoria":"Localidad simple","centroide":{"lat":-26.4958399099606,"lon":-59.680356876031},"departamento":{"id":"22084","nombre":"Libertador General San Martín"},"id":"22084040","localidad_censal":{"id":"22084040","nombre":"Laguna Limpia"},"municipio":{"id":"220273","nombre":"Laguna Limpia"},"nombre":"Laguna Limpia","provincia":{"id":"22","nombre":"Chaco"}},{"categoria":"Localidad simple","centroide":{"lat":-26.7011493406054,"lon":-59.12404507586},"departamento":{"id":"22084","nombre":"Libertador General San Martín"},"id":"22084050","localidad_censal":{"id":"22084050","nombre":"Pampa Almirón"},"municipio":{"id":"220280","nombre":"Pampa Almirón"},"nombre":"Pampa Almirón","provincia":{"id":"22","nombre":"Chaco"}},{"categoria":"Localidad simple","centroide":{"lat":-26.0490249999348,"lon":-59.9427535812383},"departamento":{"id":"22084","nombre":"Libertador General San Martín"},"id":"22084060","localidad_censal":{"id":"22084060","nombre":"Pampa del Indio"},"municipio":{"id":"220287","nombre":"Pampa del Indio"},"nombre":"Pampa del Indio","provincia":{"id":"22","nombre":"Chaco"}},{"categoria":"Localidad simple","centroide":{"lat":-26.1437153807833,"lon":-59.5950291800733},"departamento":{"id":"22084","nombre":"Libertador General San Martín"},"id":"22084070","localidad_censal":{"id":"22084070","nombre":"Presidencia Roca"},"municipio":{"id":"220294","nombre":"Presidencia Roca"},"nombre":"Presidencia Roca","provincia":{"id":"22","nombre":"Chaco"}},{"categoria":"Localidad simple","centroide":{"lat":-26.8023527458967,"lon":-58.9570266168189},"departamento":{"id":"22084","nombre":"Libertador General San Martín"},"id":"22084080","localidad_censal":{"id":"22084080","nombre":"Selvas del Río de Oro"},"municipio":{"id":"220266","nombre":"La Eduvigis"},"nombre":"Selvas del Río de Oro","provincia":{"id":"22","nombre":"Chaco"}},{"categoria":"Localidad simple","centroide":{"lat":-26.3403245622113,"lon":-60.4312615293597},"departamento":{"id":"22091","nombre":"Maipú"},"id":"22091010","localidad_censal":{"id":"22091010","nombre":"Tres Isletas"},"municipio":{"id":"220301","nombre":"Tres Isletas"},"nombre":"Tres Isletas","provincia":{"id":"22","nombre":"Chaco"}},{"categoria":"Localidad simple","centroide":{"lat":-27.6822134077665,"lon":-60.9043422133531},"departamento":{"id":"22098","nombre":"Mayor Luis J. Fontana"},"id":"22098010","localidad_censal":{"id":"22098010","nombre":"Coronel Du Graty"},"municipio":{"id":"220308","nombre":"Coronel Du Graty"},"nombre":"Coronel Du Graty","provincia":{"id":"22","nombre":"Chaco"}},{"categoria":"Localidad simple","centroide":{"lat":-27.5566723947607,"lon":-60.5269673722272},"departamento":{"id":"22098","nombre":"Mayor Luis J. Fontana"},"id":"22098020","localidad_censal":{"id":"22098020","nombre":"Enrique Urien"},"municipio":{"id":"220315","nombre":"Enrique Urién"},"nombre":"Enrique Urien","provincia":{"id":"22","nombre":"Chaco"}},{"categoria":"Localidad simple","centroide":{"lat":-27.5768775556817,"lon":-60.7111256657117},"departamento":{"id":"22098","nombre":"Mayor Luis J. Fontana"},"id":"22098030","localidad_censal":{"id":"22098030","nombre":"Villa Angela"},"municipio":{"id":"220322","nombre":"Villa Ángela"},"nombre":"Villa Angela","provincia":{"id":"22","nombre":"Chaco"}},{"categoria":"Localidad simple","centroide":{"lat":-27.0864384535522,"lon":-61.0858228220695},"departamento":{"id":"22105","nombre":"9 de Julio"},"id":"22105010","localidad_censal":{"id":"22105010","nombre":"Las Breñas"},"municipio":{"id":"220329","nombre":"Las Breñas"},"nombre":"Las Breñas","provincia":{"id":"22","nombre":"Chaco"}},{"categoria":"Localidad simple","centroide":{"lat":-27.1773371114827,"lon":-60.6326696472275},"departamento":{"id":"22112","nombre":"O'Higgins"},"id":"22112010","localidad_censal":{"id":"22112010","nombre":"La Clotilde"},"municipio":{"id":"220336","nombre":"La Clotilde"},"nombre":"La Clotilde","provincia":{"id":"22","nombre":"Chaco"}},{"categoria":"Localidad simple","centroide":{"lat":-27.114230445782,"lon":-60.5876582048946},"departamento":{"id":"22112","nombre":"O'Higgins"},"id":"22112020","localidad_censal":{"id":"22112020","nombre":"La Tigra"},"municipio":{"id":"220343","nombre":"La Tigra"},"nombre":"La Tigra","provincia":{"id":"22","nombre":"Chaco"}},{"categoria":"Localidad simple","centroide":{"lat":-27.2867193175886,"lon":-60.7128491725155},"departamento":{"id":"22112","nombre":"O'Higgins"},"id":"22112030","localidad_censal":{"id":"22112030","nombre":"San Bernardo"},"municipio":{"id":"220350","nombre":"San Bernardo"},"nombre":"San Bernardo","provincia":{"id":"22","nombre":"Chaco"}},{"categoria":"Localidad simple","centroide":{"lat":-26.998643134952,"lon":-59.8463772779192},"departamento":{"id":"22119","nombre":"Presidencia de la Plaza"},"id":"22119010","localidad_censal":{"id":"22119010","nombre":"Presidencia de la Plaza"},"municipio":{"id":"220357","nombre":"Presidencia de la Plaza"},"nombre":"Presidencia de la Plaza","provincia":{"id":"22","nombre":"Chaco"}},{"categoria":"Localidad simple","centroide":{"lat":-27.4610600630558,"lon":-58.8675740610966},"departamento":{"id":"22126","nombre":"1° de Mayo"},"id":"22126010","localidad_censal":{"id":"22126010","nombre":"Barrio de los Pescadores"},"municipio":{"id":"220364","nombre":"Colonia Benítez"},"nombre":"Barrio de los Pescadores","provincia":{"id":"22","nombre":"Chaco"}},{"categoria":"Localidad simple","centroide":{"lat":-27.3326007424094,"lon":-58.9463894200742},"departamento":{"id":"22126","nombre":"1° de Mayo"},"id":"22126020","localidad_censal":{"id":"22126020","nombre":"Colonia Benítez"},"municipio":{"id":"220364","nombre":"Colonia Benítez"},"nombre":"Colonia Benítez","provincia":{"id":"22","nombre":"Chaco"}},{"categoria":"Localidad simple","centroide":{"lat":-27.2590568299922,"lon":-58.9705547398788},"departamento":{"id":"22126","nombre":"1° de Mayo"},"id":"22126030","localidad_censal":{"id":"22126030","nombre":"Margarita Belén"},"municipio":{"id":"220371","nombre":"Margarita Belén"},"nombre":"Margarita Belén","provincia":{"id":"22","nombre":"Chaco"}},{"categoria":"Localidad simple","centroide":{"lat":-26.8707906795915,"lon":-60.215199589267},"departamento":{"id":"22133","nombre":"Quitilipi"},"id":"22133010","localidad_censal":{"id":"22133010","nombre":"Quitilipi"},"municipio":{"id":"220378","nombre":"Quitilipi"},"nombre":"Quitilipi","provincia":{"id":"22","nombre":"Chaco"}},{"categoria":"Localidad simple","centroide":{"lat":-26.4545040227541,"lon":-60.16440487728},"departamento":{"id":"22133","nombre":"Quitilipi"},"id":"22133020","localidad_censal":{"id":"22133020","nombre":"Villa El Palmar"},"municipio":{"id":"220378","nombre":"Quitilipi"},"nombre":"Villa El Palmar","provincia":{"id":"22","nombre":"Chaco"}},{"categoria":"Componente de localidad compuesta","centroide":{"lat":-27.485106065975,"lon":-58.9307362641928},"departamento":{"id":"22140","nombre":"San Fernando"},"id":"22140010","localidad_censal":{"id":"22140010","nombre":"Barranqueras"},"municipio":{"id":"220385","nombre":"Barranqueras"},"nombre":"Barranqueras","provincia":{"id":"22","nombre":"Chaco"}},{"categoria":"Localidad simple","centroide":{"lat":-27.887604311928,"lon":-59.2814720308718},"departamento":{"id":"22140","nombre":"San Fernando"},"id":"22140020","localidad_censal":{"id":"22140020","nombre":"Basail"},"municipio":{"id":"220392","nombre":"Basail"},"nombre":"Basail","provincia":{"id":"22","nombre":"Chaco"}},{"categoria":"Localidad simple","centroide":{"lat":-27.559706609019,"lon":-59.307924278637},"departamento":{"id":"22140","nombre":"San Fernando"},"id":"22140030","localidad_censal":{"id":"22140030","nombre":"Colonia Baranda"},"municipio":{"id":"220413","nombre":"Resistencia"},"nombre":"Colonia Baranda","provincia":{"id":"22","nombre":"Chaco"}},{"categoria":"Componente de localidad compuesta","centroide":{"lat":-27.4202374033126,"lon":-59.0373912551351},"departamento":{"id":"22140","nombre":"San Fernando"},"id":"22140040","localidad_censal":{"id":"22140040","nombre":"Fontana"},"municipio":{"id":"220399","nombre":"Fontana"},"nombre":"Fontana","provincia":{"id":"22","nombre":"Chaco"}},{"categoria":"Componente de localidad compuesta","centroide":{"lat":-27.5108391447737,"lon":-58.9417159117382},"departamento":{"id":"22140","nombre":"San Fernando"},"id":"22140050","localidad_censal":{"id":"22140050","nombre":"Puerto Vilelas"},"municipio":{"id":"220406","nombre":"Puerto Vilelas"},"nombre":"Puerto Vilelas","provincia":{"id":"22","nombre":"Chaco"}},{"categoria":"Componente de localidad compuesta","centroide":{"lat":-27.4510757112285,"lon":-58.9864835287395},"departamento":{"id":"22140","nombre":"San Fernando"},"id":"22140060","localidad_censal":{"id":"22140060","nombre":"Resistencia"},"municipio":{"id":"220413","nombre":"Resistencia"},"nombre":"Resistencia","provincia":{"id":"22","nombre":"Chaco"}},{"categoria":"Localidad simple","centroide":{"lat":-27.5191076765673,"lon":-60.3940259705373},"departamento":{"id":"22147","nombre":"San Lorenzo"},"id":"22147010","localidad_censal":{"id":"22147010","nombre":"Samuhú"},"municipio":{"id":"220420","nombre":"Samuhú"},"nombre":"Samuhú","provincia":{"id":"22","nombre":"Chaco"}},{"categoria":"Localidad simple","centroide":{"lat":-27.2853226966707,"lon":-60.4159744929923},"departamento":{"id":"22147","nombre":"San Lorenzo"},"id":"22147020","localidad_censal":{"id":"22147020","nombre":"Villa Berthet"},"municipio":{"id":"220427","nombre":"Villa Berthet"},"nombre":"Villa Berthet","provincia":{"id":"22","nombre":"Chaco"}},{"categoria":"Localidad simple","centroide":{"lat":-26.8023878089949,"lon":-59.5570832354769},"departamento":{"id":"22154","nombre":"Sargento Cabral"},"id":"22154010","localidad_censal":{"id":"22154010","nombre":"Capitán Solari"},"municipio":{"id":"220434","nombre":"Capitán Solari"},"nombre":"Capitán Solari","provincia":{"id":"22","nombre":"Chaco"}},{"categoria":"Localidad simple","centroide":{"lat":-26.9316357889598,"lon":-59.5188114273782},"departamento":{"id":"22154","nombre":"Sargento Cabral"},"id":"22154020","localidad_censal":{"id":"22154020","nombre":"Colonia Elisa"},"municipio":{"id":"220441","nombre":"Colonia Elisa"},"nombre":"Colonia Elisa","provincia":{"id":"22","nombre":"Chaco"}},{"categoria":"Localidad simple","centroide":{"lat":-26.6983483793636,"lon":-59.6322100649357},"departamento":{"id":"22154","nombre":"Sargento Cabral"},"id":"22154030","localidad_censal":{"id":"22154030","nombre":"Colonias Unidas"},"municipio":{"id":"220448","nombre":"Colonias Unidas"},"nombre":"Colonias Unidas","provincia":{"id":"22","nombre":"Chaco"}},{"categoria":"Localidad simple","centroide":{"lat":-27.002424705928,"lon":-59.4826230875459},"departamento":{"id":"22154","nombre":"Sargento Cabral"},"id":"22154040","localidad_censal":{"id":"22154040","nombre":"Ingeniero Barbet"},"municipio":{"id":"220441","nombre":"Colonia Elisa"},"nombre":"Ingeniero Barbet","provincia":{"id":"22","nombre":"Chaco"}},{"categoria":"Localidad simple","centroide":{"lat":-26.6180677849294,"lon":-59.7990423169377},"departamento":{"id":"22154","nombre":"Sargento Cabral"},"id":"22154050","localidad_censal":{"id":"22154050","nombre":"Las Garcitas"},"municipio":{"id":"220455","nombre":"Las Garcitas"},"nombre":"Las Garcitas","provincia":{"id":"22","nombre":"Chaco"}},{"categoria":"Localidad simple","centroide":{"lat":-27.652364422085,"lon":-59.8603507318939},"departamento":{"id":"22161","nombre":"Tapenagá"},"id":"22161010","localidad_censal":{"id":"22161010","nombre":"Charadai"},"municipio":{"id":"220469","nombre":"Charadai"},"nombre":"Charadai","provincia":{"id":"22","nombre":"Chaco"}},{"categoria":"Localidad simple","centroide":{"lat":-27.5314293676606,"lon":-59.5750500614589},"departamento":{"id":"22161","nombre":"Tapenagá"},"id":"22161020","localidad_censal":{"id":"22161020","nombre":"Cote Lai"},"municipio":{"id":"220462","nombre":"Cote Lai"},"nombre":"Cote Lai","provincia":{"id":"22","nombre":"Chaco"}},{"categoria":"Localidad simple","centroide":{"lat":-27.5076395814698,"lon":-60.1781987489044},"departamento":{"id":"22161","nombre":"Tapenagá"},"id":"22161030","localidad_censal":{"id":"22161030","nombre":"Haumonia"},"municipio":{"id":"220469","nombre":"Charadai"},"nombre":"Haumonia","provincia":{"id":"22","nombre":"Chaco"}},{"categoria":"Localidad simple","centroide":{"lat":-27.542386472465,"lon":-59.9557830142463},"departamento":{"id":"22161","nombre":"Tapenagá"},"id":"22161040","localidad_censal":{"id":"22161040","nombre":"Horquilla"},"municipio":{"id":"220469","nombre":"Charadai"},"nombre":"Horquilla","provincia":{"id":"22","nombre":"Chaco"}},{"categoria":"Localidad simple","centroide":{"lat":-27.8714507883577,"lon":-59.9368592217998},"departamento":{"id":"22161","nombre":"Tapenagá"},"id":"22161050","localidad_censal":{"id":"22161050","nombre":"La Sabana"},"municipio":{"id":"220469","nombre":"Charadai"},"nombre":"La Sabana","provincia":{"id":"22","nombre":"Chaco"}},{"categoria":"Localidad simple","centroide":{"lat":-26.9558881616296,"lon":-60.2028728637073},"departamento":{"id":"22168","nombre":"25 de Mayo"},"id":"22168010","localidad_censal":{"id":"22168010","nombre":"Colonia Aborigen"},"municipio":{"id":"220476","nombre":"Machagai"},"nombre":"Colonia Aborigen","provincia":{"id":"22","nombre":"Chaco"}},{"categoria":"Localidad simple","centroide":{"lat":-26.9261347606326,"lon":-60.0484194117374},"departamento":{"id":"22168","nombre":"25 de Mayo"},"id":"22168020","localidad_censal":{"id":"22168020","nombre":"Machagai"},"municipio":{"id":"220476","nombre":"Machagai"},"nombre":"Machagai","provincia":{"id":"22","nombre":"Chaco"}},{"categoria":"Localidad simple","centroide":{"lat":-26.90250084563,"lon":-60.1298062022973},"departamento":{"id":"22168","nombre":"25 de Mayo"},"id":"22168030","localidad_censal":{"id":"22168030","nombre":"Napalpí"},"municipio":{"id":"220476","nombre":"Machagai"},"nombre":"Napalpí","provincia":{"id":"22","nombre":"Chaco"}}],"parametros":{"max":999,"provincia":"chaco"},"total":91}
