{"cantidad":76,"inicio":0,"localidades":[{"categoria":"Localidad simple","centroide":{"lat":-28.3081359127144,"lon":-58.2868656335838},"departamento":{"id":"18028","nombre":"Concepción"},"id":"18028030","localidad_censal":{"id":"18028030","nombre":"Tabay"},"municipio":{"id":"180049","nombre":"Tabay"},"nombre":"Tabay","provincia":{"id":"18","nombre":"Corrientes"}},{"categoria":"Localidad simple","centroide":{"lat":-28.5076832122621,"lon":-59.0452172890593},"departamento":{"id":"18007","nombre":"Bella Vista"},"id":"18007010","localidad_censal":{"id":"18007010","nombre":"Bella Vista"},"municipio":{"id":"180007","nombre":"Bella Vista"},"nombre":"Bella Vista","provincia":{"id":"18","nombre":"Corrientes"}},{"categoria":"Localidad simple","centroide":{"lat":-27.5502192063956,"lon":-57.5284147514388},"departamento":{"id":"18014","nombre":"Berón de Astrada"},"id":"18014010","localidad_censal":{"id":"18014010","nombre":"San Antonio de Itatí"},"municipio":{"id":"180014","nombre":"San Antonio de Itatí"},"nombre":"Berón de Astrada","provincia":{"id":"18","nombre":"Corrientes"}},{"categoria":"Localidad simple","centroide":{"lat":-27.371446097571,"lon":-57.6550373547485},"departamento":{"id":"18014","nombre":"Berón de Astrada"},"id":"18014020","localidad_censal":{"id":"18014020","nombre":"Yahapé"},"municipio":{"id":"180014","nombre":"San Antonio de Itatí"},"nombre":"Yahapé","provincia":{"id":"18","nombre":"Corrientes"}},{"categoria":"Localidad simple","centroide":{"lat":-27.4633450136008,"lon":-58.8394728460849},"departamento":{"id":"18021","nombre":"Capital"},"id":"18021020","localidad_censal":{"id":"18021020","nombre":"Corrientes"},"municipio":{"id":"180021","nombre":"Corrientes"},"nombre":"Corrientes","provincia":{"id":"18","nombre":"Corrientes"}},{"categoria":"Localidad simple","centroide":{"lat":-27.5804349376368,"lon":-58.7431168330177},"departamento":{"id":"18021","nombre":"Capital"},"id":"18021040","localidad_censal":{"id":"18021040","nombre":"Riachuelo"},"municipio":{"id":"180028","nombre":"Riachuelo"},"nombre":"Riachuelo","provincia":{"id":"18","nombre":"Corrientes"}},{"categoria":"Localidad simple","centroide":{"lat":-27.5712085908961,"lon":-58.695878654331},"departamento":{"id":"18021","nombre":"Capital"},"id":"18021050","localidad_censal":{"id":"18021050","nombre":"San Cayetano"},"municipio":{"id":"180028","nombre":"Riachuelo"},"nombre":"San Cayetano","provincia":{"id":"18","nombre":"Corrientes"}},{"categoria":"Localidad simple","centroide":{"lat":-28.3932008623293,"lon":-57.8869168616331},"departamento":{"id":"18028","nombre":"Concepción"},"id":"18028010","localidad_censal":{"id":"18028010","nombre":"Concepción del Yaguareté Corá"},"municipio":{"id":"180042","nombre":"Concepción del Yaguareté Corá"},"nombre":"Concepción","provincia":{"id":"18","nombre":"Corrientes"}},{"categoria":"Localidad simple","centroide":{"lat":-28.2672789123962,"lon":-58.122724375144},"departamento":{"id":"18028","nombre":"Concepción"},"id":"18028020","localidad_censal":{"id":"18028020","nombre":"Santa Rosa"},"municipio":{"id":"180035","nombre":"Colonia Santa Rosa"},"nombre":"Santa Rosa","provincia":{"id":"18","nombre":"Corrientes"}},{"categoria":"Localidad simple","centroide":{"lat":-28.3759194197758,"lon":-58.3211361606206},"departamento":{"id":"18028","nombre":"Concepción"},"id":"18028040","localidad_censal":{"id":"18028040","nombre":"Tatacuá"},"municipio":{"id":"180056","nombre":"Tatacuá"},"nombre":"Tatacua","provincia":{"id":"18","nombre":"Corrientes"}},{"categoria":"Localidad simple","centroide":{"lat":-29.9823804820362,"lon":-58.30424028359},"departamento":{"id":"18035","nombre":"Curuzú Cuatiá"},"id":"18035010","localidad_censal":{"id":"18035010","nombre":"Cazadores Correntinos"},"municipio":{"id":"180059","nombre":"Cazadores Correntinos"},"nombre":"Cazadores Correntinos","provincia":{"id":"18","nombre":"Corrientes"}},{"categoria":"Localidad simple","centroide":{"lat":-29.7914512117216,"lon":-58.0498588056217},"departamento":{"id":"18035","nombre":"Curuzú Cuatiá"},"id":"18035020","localidad_censal":{"id":"18035020","nombre":"Curuzú Cuatiá"},"municipio":{"id":"180063","nombre":"Curuzú Cuatiá"},"nombre":"Curuzú Cuatiá","provincia":{"id":"18","nombre":"Corrientes"}},{"categoria":"Localidad simple","centroide":{"lat":-29.3408478764481,"lon":-58.6082036530838},"departamento":{"id":"18035","nombre":"Curuzú Cuatiá"},"id":"18035030","localidad_censal":{"id":"18035030","nombre":"Perugorría"},"municipio":{"id":"180070","nombre":"Perugorría"},"nombre":"Perugorría","provincia":{"id":"18","nombre":"Corrientes"}},{"categoria":"Localidad simple","centroide":{"lat":-27.7035428215827,"lon":-58.7686059898584},"departamento":{"id":"18042","nombre":"Empedrado"},"id":"18042010","localidad_censal":{"id":"18042010","nombre":"El Sombrero"},"municipio":{"id":"180073","nombre":"El Sombrero"},"nombre":"El Sombrero","provincia":{"id":"18","nombre":"Corrientes"}},{"categoria":"Localidad simple","centroide":{"lat":-27.9507030287188,"lon":-58.8030952116087},"departamento":{"id":"18042","nombre":"Empedrado"},"id":"18042020","localidad_censal":{"id":"18042020","nombre":"Empedrado"},"municipio":{"id":"180077","nombre":"Empedrado"},"nombre":"Empedrado","provincia":{"id":"18","nombre":"Corrientes"}},{"categoria":"Localidad simple","centroide":{"lat":-30.0146070645803,"lon":-59.5295187353223},"departamento":{"id":"18049","nombre":"Esquina"},"id":"18049010","localidad_censal":{"id":"18049010","nombre":"Esquina"},"municipio":{"id":"180084","nombre":"Esquina"},"nombre":"Esquina","provincia":{"id":"18","nombre":"Corrientes"}},{"categoria":"Localidad simple","centroide":{"lat":-30.2201057337039,"lon":-59.3897582084609},"departamento":{"id":"18049","nombre":"Esquina"},"id":"18049020","localidad_censal":{"id":"18049020","nombre":"Pueblo Libertador"},"municipio":{"id":"180091","nombre":"Pueblo Libertador"},"nombre":"Pueblo Libertador","provincia":{"id":"18","nombre":"Corrientes"}},{"categoria":"Localidad simple","centroide":{"lat":-29.09883935098,"lon":-56.5534358403365},"departamento":{"id":"18056","nombre":"General Alvear"},"id":"18056010","localidad_censal":{"id":"18056010","nombre":"Alvear"},"municipio":{"id":"180098","nombre":"Alvear"},"nombre":"Alvear","provincia":{"id":"18","nombre":"Corrientes"}},{"categoria":"Localidad simple","centroide":{"lat":-28.8243613260553,"lon":-56.469217050869},"departamento":{"id":"18056","nombre":"General Alvear"},"id":"18056020","localidad_censal":{"id":"18056020","nombre":"Estación Torrent"},"municipio":{"id":"180105","nombre":"Estación Torrent"},"nombre":"Estación Torrent","provincia":{"id":"18","nombre":"Corrientes"}},{"categoria":"Localidad simple","centroide":{"lat":-27.4258760157694,"lon":-57.3381268072242},"departamento":{"id":"18063","nombre":"General Paz"},"id":"18063010","localidad_censal":{"id":"18063010","nombre":"Itá Ibaté"},"municipio":{"id":"180119","nombre":"Itá Ibaté"},"nombre":"Itá Ibaté","provincia":{"id":"18","nombre":"Corrientes"}},{"categoria":"Localidad simple","centroide":{"lat":-27.7378846270323,"lon":-57.9198968960182},"departamento":{"id":"18063","nombre":"General Paz"},"id":"18063020","localidad_censal":{"id":"18063020","nombre":"Lomas de Vallejos"},"municipio":{"id":"180126","nombre":"Lomas de Vallejos"},"nombre":"Lomas de Vallejos","provincia":{"id":"18","nombre":"Corrientes"}},{"categoria":"Localidad simple","centroide":{"lat":-27.7521508451429,"lon":-57.6219981561066},"departamento":{"id":"18063","nombre":"General Paz"},"id":"18063030","localidad_censal":{"id":"18063030","nombre":"Nuestra Señora del Rosario de Caá Catí"},"municipio":{"id":"180112","nombre":"Caá Catí"},"nombre":"Nuestra Señora del Rosario de Caá Catí","provincia":{"id":"18","nombre":"Corrientes"}},{"categoria":"Localidad simple","centroide":{"lat":-27.9412672870758,"lon":-57.9009582059555},"departamento":{"id":"18063","nombre":"General Paz"},"id":"18063040","localidad_censal":{"id":"18063040","nombre":"Palmar Grande"},"municipio":{"id":"180133","nombre":"Palmar Grande"},"nombre":"Palmar Grande","provincia":{"id":"18","nombre":"Corrientes"}},{"categoria":"Localidad simple","centroide":{"lat":-29.1502771335216,"lon":-59.1817933807415},"departamento":{"id":"18070","nombre":"Goya"},"id":"18070010","localidad_censal":{"id":"18070010","nombre":"Carolina"},"municipio":{"id":"180140","nombre":"Goya"},"nombre":"Carolina","provincia":{"id":"18","nombre":"Corrientes"}},{"categoria":"Localidad simple","centroide":{"lat":-29.1400763814368,"lon":-59.2598912571001},"departamento":{"id":"18070","nombre":"Goya"},"id":"18070020","localidad_censal":{"id":"18070020","nombre":"Goya"},"municipio":{"id":"180140","nombre":"Goya"},"nombre":"Goya","provincia":{"id":"18","nombre":"Corrientes"}},{"categoria":"Localidad simple","centroide":{"lat":-27.2692166599188,"lon":-58.2424212691191},"departamento":{"id":"18077","nombre":"Itatí"},"id":"18077010","localidad_censal":{"id":"18077010","nombre":"Itatí"},"municipio":{"id":"180147","nombre":"Itatí"},"nombre":"Itatí","provincia":{"id":"18","nombre":"Corrientes"}},{"categoria":"Localidad simple","centroide":{"lat":-27.3661839328388,"lon":-58.2996240364452},"departamento":{"id":"18077","nombre":"Itatí"},"id":"18077020","localidad_censal":{"id":"18077020","nombre":"Ramada Paso"},"municipio":{"id":"180154","nombre":"Ramada Paso"},"nombre":"Ramada Paso","provincia":{"id":"18","nombre":"Corrientes"}},{"categoria":"Componente de localidad compuesta","centroide":{"lat":-27.9133581893577,"lon":-55.8242391819435},"departamento":{"id":"18084","nombre":"Ituzaingó"},"id":"18084010","localidad_censal":{"id":"18084010","nombre":"Colonia Liebig"},"municipio":{"id":"180161","nombre":"Colonia Liebig"},"nombre":"Colonia Liebig's","provincia":{"id":"18","nombre":"Corrientes"}},{"categoria":"Localidad simple","centroide":{"lat":-27.5851000792357,"lon":-56.68704523972},"departamento":{"id":"18084","nombre":"Ituzaingó"},"id":"18084020","localidad_censal":{"id":"18084020","nombre":"Ituzaingó"},"municipio":{"id":"180168","nombre":"Ituzaingó"},"nombre":"Ituzaingó","provincia":{"id":"18","nombre":"Corrientes"}},{"categoria":"Localidad simple","centroide":{"lat":-27.5082288352068,"lon":-56.7452355069039},"departamento":{"id":"18084","nombre":"Ituzaingó"},"id":"18084030","localidad_censal":{"id":"18084030","nombre":"San Antonio"},"municipio":{"id":"180175","nombre":"San Antonio Isla Apipé Grande"},"nombre":"San Antonio","provincia":{"id":"18","nombre":"Corrientes"}},{"categoria":"Localidad simple","centroide":{"lat":-27.7436223924694,"lon":-55.8984316807213},"departamento":{"id":"18084","nombre":"Ituzaingó"},"id":"18084040","localidad_censal":{"id":"18084040","nombre":"San Carlos"},"municipio":{"id":"180182","nombre":"San Carlos"},"nombre":"San Carlos","provincia":{"id":"18","nombre":"Corrientes"}},{"categoria":"Localidad simple","centroide":{"lat":-27.6331004316817,"lon":-56.9063054446071},"departamento":{"id":"18084","nombre":"Ituzaingó"},"id":"18084050","localidad_censal":{"id":"18084050","nombre":"Villa Olivari"},"municipio":{"id":"180186","nombre":"Villa Olivari"},"nombre":"Villa Olivari","provincia":{"id":"18","nombre":"Corrientes"}},{"categoria":"Localidad simple","centroide":{"lat":-28.8361238233681,"lon":-59.0060051399177},"departamento":{"id":"18091","nombre":"Lavalle"},"id":"18091010","localidad_censal":{"id":"18091010","nombre":"Cruz de los Milagros"},"municipio":{"id":"180189","nombre":"Cruz de los Milagros"},"nombre":"Cruz de los Milagros","provincia":{"id":"18","nombre":"Corrientes"}},{"categoria":"Localidad simple","centroide":{"lat":-28.912338712049,"lon":-58.9361031061952},"departamento":{"id":"18091","nombre":"Lavalle"},"id":"18091020","localidad_censal":{"id":"18091020","nombre":"Gobernador Martínez"},"municipio":{"id":"180196","nombre":"Gobernador Martínez"},"nombre":"Gobernador Juan E. Martínez","provincia":{"id":"18","nombre":"Corrientes"}},{"categoria":"Localidad simple","centroide":{"lat":-29.0233312186356,"lon":-59.1791542656857},"departamento":{"id":"18091","nombre":"Lavalle"},"id":"18091030","localidad_censal":{"id":"18091030","nombre":"Lavalle"},"municipio":{"id":"180203","nombre":"Lavalle"},"nombre":"Lavalle","provincia":{"id":"18","nombre":"Corrientes"}},{"categoria":"Localidad simple","centroide":{"lat":-28.9898522481525,"lon":-59.1007625543369},"departamento":{"id":"18091","nombre":"Lavalle"},"id":"18091040","localidad_censal":{"id":"18091040","nombre":"Santa Lucí­a"},"municipio":{"id":"180210","nombre":"Santa Lucía"},"nombre":"Santa Lucía","provincia":{"id":"18","nombre":"Corrientes"}},{"categoria":"Localidad simple","centroide":{"lat":-28.9916565448754,"lon":-59.0751889970417},"departamento":{"id":"18091","nombre":"Lavalle"},"id":"18091050","localidad_censal":{"id":"18091050","nombre":"Villa Córdoba"},"municipio":{"id":"180210","nombre":"Santa Lucía"},"nombre":"Villa Córdoba","provincia":{"id":"18","nombre":"Corrientes"}},{"categoria":"Localidad simple","centroide":{"lat":-29.0283125663823,"lon":-58.912232686265},"departamento":{"id":"18091","nombre":"Lavalle"},"id":"18091060","localidad_censal":{"id":"18091060","nombre":"Yatay Ti Calle"},"municipio":{"id":"180217","nombre":"Yatay Ti Calle"},"nombre":"Yatayti Calle","provincia":{"id":"18","nombre":"Corrientes"}},{"categoria":"Localidad simple","centroide":{"lat":-28.0468575823017,"lon":-58.2303056698416},"departamento":{"id":"18098","nombre":"Mburucuyá"},"id":"18098010","localidad_censal":{"id":"18098010","nombre":"Mburucuyá"},"municipio":{"id":"180224","nombre":"Mburucuyá"},"nombre":"Mburucuyá","provincia":{"id":"18","nombre":"Corrientes"}},{"categoria":"Localidad simple","centroide":{"lat":-29.1068306261889,"lon":-58.339630558229},"departamento":{"id":"18105","nombre":"Mercedes"},"id":"18105010","localidad_censal":{"id":"18105010","nombre":"Felipe Yofré"},"municipio":{"id":"180231","nombre":"Felipe Yofré"},"nombre":"Felipe Yofré","provincia":{"id":"18","nombre":"Corrientes"}},{"categoria":"Localidad simple","centroide":{"lat":-29.3768720997383,"lon":-58.1922345557106},"departamento":{"id":"18105","nombre":"Mercedes"},"id":"18105020","localidad_censal":{"id":"18105020","nombre":"Mariano I. Loza (Est. Justino Solari)"},"municipio":{"id":"180238","nombre":"Mariano I. Loza"},"nombre":"Mariano I. Loza","provincia":{"id":"18","nombre":"Corrientes"}},{"categoria":"Localidad simple","centroide":{"lat":-29.184692808419,"lon":-58.0735317667774},"departamento":{"id":"18105","nombre":"Mercedes"},"id":"18105030","localidad_censal":{"id":"18105030","nombre":"Mercedes"},"municipio":{"id":"180245","nombre":"Mercedes"},"nombre":"Mercedes","provincia":{"id":"18","nombre":"Corrientes"}},{"categoria":"Localidad simple","centroide":{"lat":-30.0433033963297,"lon":-57.8217083171902},"departamento":{"id":"18112","nombre":"Monte Caseros"},"id":"18112010","localidad_censal":{"id":"18112010","nombre":"Colonia Libertad"},"municipio":{"id":"180252","nombre":"Colonia Libertad"},"nombre":"Colonia Libertad","provincia":{"id":"18","nombre":"Corrientes"}},{"categoria":"Localidad simple","centroide":{"lat":-30.0132954607257,"lon":-57.859334503744},"departamento":{"id":"18112","nombre":"Monte Caseros"},"id":"18112020","localidad_censal":{"id":"18112020","nombre":"Estación Libertad"},"municipio":{"id":"180252","nombre":"Colonia Libertad"},"nombre":"Estación Libertad","provincia":{"id":"18","nombre":"Corrientes"}},{"categoria":"Localidad simple","centroide":{"lat":-30.4193217435637,"lon":-57.8558925692433},"departamento":{"id":"18112","nombre":"Monte Caseros"},"id":"18112030","localidad_censal":{"id":"18112030","nombre":"Juan Pujol"},"municipio":{"id":"180259","nombre":"Juan Pujol"},"nombre":"Juan Pujol","provincia":{"id":"18","nombre":"Corrientes"}},{"categoria":"Localidad simple","centroide":{"lat":-30.6166771623996,"lon":-57.9753625741667},"departamento":{"id":"18112","nombre":"Monte Caseros"},"id":"18112040","localidad_censal":{"id":"18112040","nombre":"Mocoretá"},"municipio":{"id":"180266","nombre":"Mocoretá"},"nombre":"Mocoretá","provincia":{"id":"18","nombre":"Corrientes"}},{"categoria":"Localidad simple","centroide":{"lat":-30.2494229600191,"lon":-57.6294817667543},"departamento":{"id":"18112","nombre":"Monte Caseros"},"id":"18112050","localidad_censal":{"id":"18112050","nombre":"Monte Caseros"},"municipio":{"id":"180273","nombre":"Monte Caseros"},"nombre":"Monte Caseros","provincia":{"id":"18","nombre":"Corrientes"}},{"categoria":"Localidad simple","centroide":{"lat":-29.9088415707249,"lon":-57.9588655544584},"departamento":{"id":"18112","nombre":"Monte Caseros"},"id":"18112060","localidad_censal":{"id":"18112060","nombre":"Parada Acuña"},"municipio":{"id":"180252","nombre":"Colonia Libertad"},"nombre":"Parada Acuña","provincia":{"id":"18","nombre":"Corrientes"}},{"categoria":"Localidad simple","centroide":{"lat":-30.3190129970515,"lon":-57.7296875439557},"departamento":{"id":"18112","nombre":"Monte Caseros"},"id":"18112070","localidad_censal":{"id":"18112070","nombre":"Parada Labougle"},"municipio":{"id":"180273","nombre":"Monte Caseros"},"nombre":"Parada Labougle","provincia":{"id":"18","nombre":"Corrientes"}},{"categoria":"Localidad simple","centroide":{"lat":-29.8174715349719,"lon":-57.4278325390256},"departamento":{"id":"18119","nombre":"Paso de los Libres"},"id":"18119010","localidad_censal":{"id":"18119010","nombre":"Bonpland"},"municipio":{"id":"180280","nombre":"Bonpland"},"nombre":"Bonpland","provincia":{"id":"18","nombre":"Corrientes"}},{"categoria":"Localidad simple","centroide":{"lat":-29.9060392794892,"lon":-57.5741688351701},"departamento":{"id":"18119","nombre":"Paso de los Libres"},"id":"18119020","localidad_censal":{"id":"18119020","nombre":"Parada Pucheta"},"municipio":{"id":"180287","nombre":"Parada Pucheta"},"nombre":"Parada Pucheta","provincia":{"id":"18","nombre":"Corrientes"}},{"categoria":"Localidad simple","centroide":{"lat":-29.7137148107283,"lon":-57.085405398509},"departamento":{"id":"18119","nombre":"Paso de los Libres"},"id":"18119030","localidad_censal":{"id":"18119030","nombre":"Paso de los Libres"},"municipio":{"id":"180294","nombre":"Paso de los Libres"},"nombre":"Paso de los Libres","provincia":{"id":"18","nombre":"Corrientes"}},{"categoria":"Localidad simple","centroide":{"lat":-29.5068220837034,"lon":-56.9748504032869},"departamento":{"id":"18119","nombre":"Paso de los Libres"},"id":"18119040","localidad_censal":{"id":"18119040","nombre":"Tapebicuá"},"municipio":{"id":"180301","nombre":"Tapebicuá"},"nombre":"Tapebicuá","provincia":{"id":"18","nombre":"Corrientes"}},{"categoria":"Localidad simple","centroide":{"lat":-28.2550670289585,"lon":-58.6237267469976},"departamento":{"id":"18126","nombre":"Saladas"},"id":"18126010","localidad_censal":{"id":"18126010","nombre":"Saladas"},"municipio":{"id":"180308","nombre":"Saladas"},"nombre":"Saladas","provincia":{"id":"18","nombre":"Corrientes"}},{"categoria":"Localidad simple","centroide":{"lat":-28.1380987971767,"lon":-58.7681324143266},"departamento":{"id":"18126","nombre":"Saladas"},"id":"18126020","localidad_censal":{"id":"18126020","nombre":"San Lorenzo"},"municipio":{"id":"180315","nombre":"San Lorenzo"},"nombre":"San Lorenzo","provincia":{"id":"18","nombre":"Corrientes"}},{"categoria":"Localidad simple","centroide":{"lat":-27.4336449302222,"lon":-58.624308399711},"departamento":{"id":"18133","nombre":"San Cosme"},"id":"18133010","localidad_censal":{"id":"18133010","nombre":"Ingenio Primer Correntino"},"municipio":{"id":"180336","nombre":"Santa Ana de los Guácaras"},"nombre":"Ingenio Primer Correntino","provincia":{"id":"18","nombre":"Corrientes"}},{"categoria":"Localidad simple","centroide":{"lat":-27.3173742609378,"lon":-58.5725641481134},"departamento":{"id":"18133","nombre":"San Cosme"},"id":"18133020","localidad_censal":{"id":"18133020","nombre":"Paso de la Patria"},"municipio":{"id":"180322","nombre":"Paso de la Patria"},"nombre":"Paso de la Patria","provincia":{"id":"18","nombre":"Corrientes"}},{"categoria":"Localidad simple","centroide":{"lat":-27.3703733639743,"lon":-58.5125134414712},"departamento":{"id":"18133","nombre":"San Cosme"},"id":"18133030","localidad_censal":{"id":"18133030","nombre":"San Cosme"},"municipio":{"id":"180329","nombre":"San Cosme"},"nombre":"San Cosme","provincia":{"id":"18","nombre":"Corrientes"}},{"categoria":"Localidad simple","centroide":{"lat":-27.4553549984351,"lon":-58.6547603461789},"departamento":{"id":"18133","nombre":"San Cosme"},"id":"18133040","localidad_censal":{"id":"18133040","nombre":"Santa Ana de los Guácaras"},"municipio":{"id":"180336","nombre":"Santa Ana de los Guácaras"},"nombre":"Santa Ana","provincia":{"id":"18","nombre":"Corrientes"}},{"categoria":"Localidad simple","centroide":{"lat":-27.5076986550343,"lon":-58.5561477152531},"departamento":{"id":"18140","nombre":"San Luis del Palmar"},"id":"18140010","localidad_censal":{"id":"18140010","nombre":"San Luis del Palmar"},"municipio":{"id":"180350","nombre":"San Luis del Palmar"},"nombre":"San Luis del Palmar","provincia":{"id":"18","nombre":"Corrientes"}},{"categoria":"Localidad simple","centroide":{"lat":-28.5372356876725,"lon":-57.1713500894698},"departamento":{"id":"18147","nombre":"San Martín"},"id":"18147010","localidad_censal":{"id":"18147010","nombre":"Colonia Carlos Pellegrini"},"municipio":{"id":"180357","nombre":"Colonia Carlos Pellegrini"},"nombre":"Colonia Carlos Pellegrini","provincia":{"id":"18","nombre":"Corrientes"}},{"categoria":"Localidad simple","centroide":{"lat":-29.367257277234,"lon":-56.829729487149},"departamento":{"id":"18147","nombre":"San Martín"},"id":"18147020","localidad_censal":{"id":"18147020","nombre":"Guaviraví"},"municipio":{"id":"180364","nombre":"Guaviraví"},"nombre":"Guaviraví","provincia":{"id":"18","nombre":"Corrientes"}},{"categoria":"Localidad simple","centroide":{"lat":-29.1786291267576,"lon":-56.6382949898464},"departamento":{"id":"18147","nombre":"San Martín"},"id":"18147030","localidad_censal":{"id":"18147030","nombre":"La Cruz"},"municipio":{"id":"180371","nombre":"La Cruz"},"nombre":"La Cruz","provincia":{"id":"18","nombre":"Corrientes"}},{"categoria":"Localidad simple","centroide":{"lat":-29.4708978724135,"lon":-56.8150660492958},"departamento":{"id":"18147","nombre":"San Martín"},"id":"18147040","localidad_censal":{"id":"18147040","nombre":"Yapeyú"},"municipio":{"id":"180378","nombre":"Yapeyú"},"nombre":"Yapeyú","provincia":{"id":"18","nombre":"Corrientes"}},{"categoria":"Localidad simple","centroide":{"lat":-27.7684268022989,"lon":-57.2752518110706},"departamento":{"id":"18154","nombre":"San Miguel"},"id":"18154010","localidad_censal":{"id":"18154010","nombre":"Loreto"},"municipio":{"id":"180385","nombre":"Loreto"},"nombre":"Loreto","provincia":{"id":"18","nombre":"Corrientes"}},{"categoria":"Localidad simple","centroide":{"lat":-27.998325926444,"lon":-57.5873113031892},"departamento":{"id":"18154","nombre":"San Miguel"},"id":"18154020","localidad_censal":{"id":"18154020","nombre":"San Miguel"},"municipio":{"id":"180392","nombre":"San Miguel"},"nombre":"San Miguel","provincia":{"id":"18","nombre":"Corrientes"}},{"categoria":"Localidad simple","centroide":{"lat":-28.9552557117496,"lon":-58.5717674623871},"departamento":{"id":"18161","nombre":"San Roque"},"id":"18161010","localidad_censal":{"id":"18161010","nombre":"Chavarrí­a"},"municipio":{"id":"180413","nombre":"Chavarría"},"nombre":"Chavarría","provincia":{"id":"18","nombre":"Corrientes"}},{"categoria":"Localidad simple","centroide":{"lat":-28.5237974395846,"lon":-58.4875853173806},"departamento":{"id":"18161","nombre":"San Roque"},"id":"18161020","localidad_censal":{"id":"18161020","nombre":"Colonia Pando"},"municipio":{"id":"180417","nombre":"Colonia Pando"},"nombre":"Colonia Pando","provincia":{"id":"18","nombre":"Corrientes"}},{"categoria":"Localidad simple","centroide":{"lat":-28.8407771600765,"lon":-58.8300857171651},"departamento":{"id":"18161","nombre":"San Roque"},"id":"18161030","localidad_censal":{"id":"18161030","nombre":"9 de Julio (Est. Pueblo 9 de Julio)"},"municipio":{"id":"180399","nombre":"9 de Julio"},"nombre":"9 de Julio","provincia":{"id":"18","nombre":"Corrientes"}},{"categoria":"Localidad simple","centroide":{"lat":-28.7463402488208,"lon":-58.6541382203541},"departamento":{"id":"18161","nombre":"San Roque"},"id":"18161040","localidad_censal":{"id":"18161040","nombre":"Pedro R. Fernández (Est. Mantilla)"},"municipio":{"id":"180406","nombre":"Pedro R. Fernández"},"nombre":"Pedro R. Fernández","provincia":{"id":"18","nombre":"Corrientes"}},{"categoria":"Localidad simple","centroide":{"lat":-28.5693032326122,"lon":-58.7051349847879},"departamento":{"id":"18161","nombre":"San Roque"},"id":"18161050","localidad_censal":{"id":"18161050","nombre":"San Roque"},"municipio":{"id":"180420","nombre":"San Roque"},"nombre":"San Roque","provincia":{"id":"18","nombre":"Corrientes"}},{"categoria":"Localidad simple","centroide":{"lat":-28.2303186276078,"lon":-55.7844099938525},"departamento":{"id":"18168","nombre":"Santo Tomé"},"id":"18168010","localidad_censal":{"id":"18168010","nombre":"Garaví"},"municipio":{"id":"180441","nombre":"Garaví"},"nombre":"José Rafael Gómez","provincia":{"id":"18","nombre":"Corrientes"}},{"categoria":"Localidad simple","centroide":{"lat":-28.1737410217252,"lon":-55.6506443276322},"departamento":{"id":"18168","nombre":"Santo Tomé"},"id":"18168020","localidad_censal":{"id":"18168020","nombre":"Garruchos"},"municipio":{"id":"180427","nombre":"Garruchos"},"nombre":"Garruchos","provincia":{"id":"18","nombre":"Corrientes"}},{"categoria":"Localidad simple","centroide":{"lat":-28.0468079831449,"lon":-56.0096324855253},"departamento":{"id":"18168","nombre":"Santo Tomé"},"id":"18168030","localidad_censal":{"id":"18168030","nombre":"Gobernador Virasoro"},"municipio":{"id":"180434","nombre":"Gobernador Virasoro"},"nombre":"Gobernador Igr. Valentín Virasoro","provincia":{"id":"18","nombre":"Corrientes"}},{"categoria":"Localidad simple","centroide":{"lat":-28.5498158069218,"lon":-56.0348110765932},"departamento":{"id":"18168","nombre":"Santo Tomé"},"id":"18168040","localidad_censal":{"id":"18168040","nombre":"Santo Tomé"},"municipio":{"id":"180448","nombre":"Santo Tomé"},"nombre":"Santo Tomé","provincia":{"id":"18","nombre":"Corrientes"}},{"categoria":"Localidad simple","centroide":{"lat":-30.0855347172816,"lon":-58.7872807765516},"departamento":{"id":"18175","nombre":"Sauce"},"id":"18175010","localidad_censal":{"id":"18175010","nombre":"Sauce"},"municipio":{"id":"180455","nombre":"Sauce"},"nombre":"Sauce","provincia":{"id":"18","nombre":"Corrientes"}}],"parametros":{"max":999,"provincia":"corrientes"},"total":76}
